{"type": "FeatureCollection", "features": [{"id": "0", "type": "Feature", "properties": {"capacity": 2.0, "data_source": "OCM", "dc_support": null, "max_kw": 11.0, "operator": "(Business Owner at Location)", "socket_type_list": null, "station_id": 132509, "street": "Bayerstra\u00dfe 12", "total_kw": 11.0, "town": "M\u00fcnchen"}, "geometry": {"type": "Point", "coordinates": [11.5567907, 48.1395388]}}, {"id": "1", "type": "Feature", "properties": {"capacity": 4.0, "data_source": "OCM", "dc_support": null, "max_kw": 11.0, "operator": "(Business Owner at Location)", "socket_type_list": null, "station_id": 132570, "street": "Maria-Probst-Stra\u00dfe 6", "total_kw": 14.7, "town": "M\u00fcnchen"}, "geometry": {"type": "Point", "coordinates": [11.5872375638, 48.1920479259]}}, {"id": "2", "type": "Feature", "properties": {"capacity": 2.0, "data_source": "OCM", "dc_support": null, "max_kw": 22.0, "operator": "Innogy SE (RWE eMobility)", "socket_type_list": null, "station_id": 132638, "street": "Max-Diamand-Stra\u00dfe 25", "total_kw": 25.7, "town": "M\u00fcnchen"}, "geometry": {"type": "Point", "coordinates": [11.5666903, 48.191494]}}, {"id": "3", "type": "Feature", "properties": {"capacity": 2.0, "data_source": "OCM", "dc_support": null, "max_kw": 22.0, "operator": "ladenetz.de", "socket_type_list": null, "station_id": 132684, "street": "He\u00dfstra\u00dfe 121", "total_kw": 25.7, "town": "M\u00fcnchen"}, "geometry": {"type": "Point", "coordinates": [11.55386, 48.15667]}}, {"id": "4", "type": "Feature", "properties": {"capacity": 2.0, "data_source": "OCM", "dc_support": null, "max_kw": 22.0, "operator": "ChargeNow", "socket_type_list": null, "station_id": 132923, "street": "Riesenfeldstra\u00dfe 216", "total_kw": 22.0, "town": "M\u00fcnchen"}, "geometry": {"type": "Point", "coordinates": [11.5587858, 48.1895088]}}, {"id": "5", "type": "Feature", "properties": {"capacity": 1.0, "data_source": "OCM", "dc_support": null, "max_kw": 22.0, "operator": "ladenetz.de", "socket_type_list": null, "station_id": 132980, "street": "Holbeinstra\u00dfe 5", "total_kw": 22.0, "town": "M\u00fcnchen"}, "geometry": {"type": "Point", "coordinates": [11.6021162, 48.1432108]}}, {"id": "6", "type": "Feature", "properties": {"capacity": 1.0, "data_source": "OCM", "dc_support": null, "max_kw": 2.3, "operator": "(Business Owner at Location)", "socket_type_list": null, "station_id": 133022, "street": "Ruppertstra\u00dfe 19", "total_kw": 2.3, "town": "M\u00fcnchen"}, "geometry": {"type": "Point", "coordinates": [11.5500185767, 48.1248281049]}}, {"id": "7", "type": "Feature", "properties": {"capacity": 2.0, "data_source": "OCM", "dc_support": null, "max_kw": 50.0, "operator": "(Business Owner at Location)", "socket_type_list": null, "station_id": 133048, "street": "Ingolst\u00e4dter Stra\u00dfe 12-14", "total_kw": 72.0, "town": "M\u00fcnchen"}, "geometry": {"type": "Point", "coordinates": [11.5853101177, 48.1856393735]}}, {"id": "8", "type": "Feature", "properties": {"capacity": 4.0, "data_source": "OCM", "dc_support": null, "max_kw": 20.0, "operator": "(Business Owner at Location)", "socket_type_list": null, "station_id": 133056, "street": "D\u00fclferstra\u00dfe 69", "total_kw": 54.7, "town": "M\u00fcnchen"}, "geometry": {"type": "Point", "coordinates": [11.5428887839, 48.2143095717]}}, {"id": "9", "type": "Feature", "properties": {"capacity": 4.0, "data_source": "OCM", "dc_support": null, "max_kw": 22.0, "operator": "E.ON (DE)", "socket_type_list": null, "station_id": 133215, "street": "Arnulfstra\u00dfe 57", "total_kw": 25.7, "town": "M\u00fcnchen"}, "geometry": {"type": "Point", "coordinates": [11.539185089, 48.1454174437]}}, {"id": "10", "type": "Feature", "properties": {"capacity": 4.0, "data_source": "OCM", "dc_support": null, "max_kw": 11.0, "operator": "(Business Owner at Location)", "socket_type_list": null, "station_id": 133387, "street": "Hofmannstra\u00dfe 10", "total_kw": 36.7, "town": "M\u00fcnchen"}, "geometry": {"type": "Point", "coordinates": [11.52887, 48.10092]}}, {"id": "11", "type": "Feature", "properties": {"capacity": 1.0, "data_source": "OCM", "dc_support": null, "max_kw": 22.0, "operator": "Tesla (Tesla-only charging)", "socket_type_list": null, "station_id": 133488, "street": "130 - 132 Leopoldstrasse", "total_kw": 22.0, "town": "M\u00fcnchen"}, "geometry": {"type": "Point", "coordinates": [11.586884, 48.167514]}}, {"id": "12", "type": "Feature", "properties": {"capacity": 2.0, "data_source": "OCM", "dc_support": null, "max_kw": 11.0, "operator": "(Business Owner at Location)", "socket_type_list": null, "station_id": 133511, "street": "Geyerstra\u00dfe 52", "total_kw": 11.0, "town": "M\u00fcnchen"}, "geometry": {"type": "Point", "coordinates": [11.564781527, 48.1226575763]}}, {"id": "13", "type": "Feature", "properties": {"capacity": 2.0, "data_source": "BNA", "dc_support": true, "max_kw": 150.0, "operator": "Mer Germany GmbH", "socket_type_list": ["DC Kupplung Combo", "DC Kupplung Combo"], "station_id": 98729, "street": "Gollierstrasse 6", "total_kw": 150.0, "town": "M\u00fcnchen"}, "geometry": {"type": "Point", "coordinates": [11.5467387, 48.1360692]}}, {"id": "14", "type": "Feature", "properties": {"capacity": 1.0, "data_source": "BNA,OCM", "dc_support": false, "max_kw": 3.7, "operator": "E.ON Drive GmbH", "socket_type_list": ["AC Steckdose Typ 2"], "station_id": 98730, "street": "Knorrstra\u00dfe 147", "total_kw": 3.7, "town": "M\u00fcnchen"}, "geometry": {"type": "Point", "coordinates": [11.5707666, 48.1938098]}}, {"id": "15", "type": "Feature", "properties": {"capacity": 1.0, "data_source": "BNA,OSM", "dc_support": false, "max_kw": 11.0, "operator": "E.ON Drive GmbH", "socket_type_list": ["AC Steckdose Typ 2"], "station_id": 98731, "street": "Levelingstra\u00dfe 0", "total_kw": 11.0, "town": "M\u00fcnchen"}, "geometry": {"type": "Point", "coordinates": [11.6235119, 48.1307175]}}, {"id": "16", "type": "Feature", "properties": {"capacity": 2.0, "data_source": "BNA,OCM,OSM", "dc_support": false, "max_kw": 22.0, "operator": "SWM Versorgungs GmbH", "socket_type_list": ["AC Steckdose Typ 2", "AC Steckdose Typ 2"], "station_id": 98732, "street": "Agnes-Pockels-Bogen 1", "total_kw": 22.0, "town": "M\u00fcnchen"}, "geometry": {"type": "Point", "coordinates": [11.5324066, 48.1732446]}}, {"id": "17", "type": "Feature", "properties": {"capacity": 2.0, "data_source": "BNA,OCM,OSM", "dc_support": false, "max_kw": 22.0, "operator": "SWM Versorgungs GmbH", "socket_type_list": ["AC Steckdose Typ 2", "AC Steckdose Typ 2"], "station_id": 98733, "street": "Blodigstr. 1a", "total_kw": 22.0, "town": "M\u00fcnchen"}, "geometry": {"type": "Point", "coordinates": [11.5563123, 48.2135948]}}, {"id": "18", "type": "Feature", "properties": {"capacity": 1.0, "data_source": "BNA,OCM,OSM", "dc_support": false, "max_kw": 22.0, "operator": "Abasto Feldmoching GmbH", "socket_type_list": ["AC Steckdose Typ 2"], "station_id": 98734, "street": "Paul-Preu\u00df-Stra\u00dfe 2", "total_kw": 22.0, "town": "M\u00fcnchen"}, "geometry": {"type": "Point", "coordinates": [11.5398447, 48.2138724]}}, {"id": "19", "type": "Feature", "properties": {"capacity": 2.0, "data_source": "BNA,OCM,OSM", "dc_support": false, "max_kw": 22.0, "operator": "SWM Versorgungs GmbH", "socket_type_list": ["AC Steckdose Typ 2", "AC Steckdose Typ 2"], "station_id": 98736, "street": "Gartenstr. 1", "total_kw": 22.0, "town": "M\u00fcnchen"}, "geometry": {"type": "Point", "coordinates": [11.5624906, 48.1723331]}}, {"id": "20", "type": "Feature", "properties": {"capacity": 2.0, "data_source": "BNA,OCM,OSM", "dc_support": false, "max_kw": 22.0, "operator": "SWM Versorgungs GmbH", "socket_type_list": ["AC Steckdose Typ 2", "AC Steckdose Typ 2"], "station_id": 98737, "street": "Pacellistr. 1a", "total_kw": 22.0, "town": "M\u00fcnchen"}, "geometry": {"type": "Point", "coordinates": [11.5714658, 48.1403905]}}, {"id": "21", "type": "Feature", "properties": {"capacity": 2.0, "data_source": "BNA,OCM,OSM", "dc_support": false, "max_kw": 22.0, "operator": "SWM Versorgungs GmbH", "socket_type_list": ["AC Steckdose Typ 2", "AC Steckdose Typ 2"], "station_id": 98738, "street": "Permoserplatz 1a", "total_kw": 22.0, "town": "M\u00fcnchen"}, "geometry": {"type": "Point", "coordinates": [11.6488556, 48.1258683]}}, {"id": "22", "type": "Feature", "properties": {"capacity": 2.0, "data_source": "BNA,OCM,OSM", "dc_support": false, "max_kw": 22.0, "operator": "SWM Versorgungs GmbH", "socket_type_list": ["AC Steckdose Typ 2", "AC Steckdose Typ 2"], "station_id": 98739, "street": "Karolinenpl. 1a", "total_kw": 22.0, "town": "M\u00fcnchen"}, "geometry": {"type": "Point", "coordinates": [11.5696162, 48.144127]}}, {"id": "23", "type": "Feature", "properties": {"capacity": 2.0, "data_source": "BNA,OCM,OSM", "dc_support": false, "max_kw": 22.0, "operator": "SWM Versorgungs GmbH", "socket_type_list": ["AC Steckdose Typ 2", "AC Steckdose Typ 2"], "station_id": 98740, "street": "Daiserstr. 1a", "total_kw": 22.0, "town": "M\u00fcnchen"}, "geometry": {"type": "Point", "coordinates": [11.5439953, 48.1219808]}}, {"id": "24", "type": "Feature", "properties": {"capacity": 2.0, "data_source": "BNA,OCM,OSM", "dc_support": false, "max_kw": 22.0, "operator": "SWM Versorgungs GmbH", "socket_type_list": ["AC Steckdose Typ 2", "AC Steckdose Typ 2"], "station_id": 98741, "street": "Solalindenstr. 26", "total_kw": 22.0, "town": "M\u00fcnchen"}, "geometry": {"type": "Point", "coordinates": [11.6743886, 48.119058]}}, {"id": "25", "type": "Feature", "properties": {"capacity": 2.0, "data_source": "BNA,OCM,OSM", "dc_support": false, "max_kw": 22.0, "operator": "SWM Versorgungs GmbH", "socket_type_list": ["AC Steckdose Typ 2", "AC Steckdose Typ 2"], "station_id": 98742, "street": "Pickelstr. 1a", "total_kw": 22.0, "town": "M\u00fcnchen"}, "geometry": {"type": "Point", "coordinates": [11.5344484, 48.1691313]}}, {"id": "26", "type": "Feature", "properties": {"capacity": 2.0, "data_source": "BNA,OCM,OSM", "dc_support": false, "max_kw": 22.0, "operator": "SWM Versorgungs GmbH", "socket_type_list": ["AC Steckdose Typ 2", "AC Steckdose Typ 2"], "station_id": 98743, "street": "Raglovichstr. 1a", "total_kw": 22.0, "town": "M\u00fcnchen"}, "geometry": {"type": "Point", "coordinates": [11.5404039, 48.1598205]}}, {"id": "27", "type": "Feature", "properties": {"capacity": 2.0, "data_source": "BNA,OCM,OSM", "dc_support": false, "max_kw": 22.0, "operator": "SWM Versorgungs GmbH", "socket_type_list": ["AC Steckdose Typ 2", "AC Steckdose Typ 2"], "station_id": 98744, "street": "Pei\u00dfenbergstr. 1a", "total_kw": 22.0, "town": "M\u00fcnchen"}, "geometry": {"type": "Point", "coordinates": [11.5748413, 48.1075291]}}, {"id": "28", "type": "Feature", "properties": {"capacity": 2.0, "data_source": "BNA,OCM,OSM", "dc_support": false, "max_kw": 22.0, "operator": "SWM Versorgungs GmbH", "socket_type_list": ["AC Steckdose Typ 2", "AC Steckdose Typ 2"], "station_id": 98745, "street": "Richelstr. 11", "total_kw": 22.0, "town": "M\u00fcnchen"}, "geometry": {"type": "Point", "coordinates": [11.5295948, 48.1457427]}}, {"id": "29", "type": "Feature", "properties": {"capacity": 2.0, "data_source": "BNA,OCM,OSM", "dc_support": false, "max_kw": 22.0, "operator": "SWM Versorgungs GmbH", "socket_type_list": ["AC Steckdose Typ 2", "AC Steckdose Typ 2"], "station_id": 98746, "street": "Rosa-Bavarese-Str. 1a", "total_kw": 22.0, "town": "M\u00fcnchen"}, "geometry": {"type": "Point", "coordinates": [11.5025201, 48.1470054]}}, {"id": "30", "type": "Feature", "properties": {"capacity": 2.0, "data_source": "BNA,OCM,OSM", "dc_support": false, "max_kw": 22.0, "operator": "SWM Versorgungs GmbH", "socket_type_list": ["AC Steckdose Typ 2", "AC Steckdose Typ 2"], "station_id": 98747, "street": "Graf-Konrad-Str. 1a", "total_kw": 22.0, "town": "M\u00fcnchen"}, "geometry": {"type": "Point", "coordinates": [11.5664589, 48.1824396]}}, {"id": "31", "type": "Feature", "properties": {"capacity": 2.0, "data_source": "BNA,OCM,OSM", "dc_support": false, "max_kw": 22.0, "operator": "SWM Versorgungs GmbH", "socket_type_list": ["AC Steckdose Typ 2", "AC Steckdose Typ 2"], "station_id": 98748, "street": "Sommerstr. 1a", "total_kw": 22.0, "town": "M\u00fcnchen"}, "geometry": {"type": "Point", "coordinates": [11.5756608, 48.1229597]}}, {"id": "32", "type": "Feature", "properties": {"capacity": 2.0, "data_source": "BNA,OCM,OSM", "dc_support": false, "max_kw": 22.0, "operator": "SWM Versorgungs GmbH", "socket_type_list": ["AC Steckdose Typ 2", "AC Steckdose Typ 2"], "station_id": 98749, "street": "Laibacher Str. 3", "total_kw": 22.0, "town": "M\u00fcnchen"}, "geometry": {"type": "Point", "coordinates": [11.604467, 48.1159818]}}, {"id": "33", "type": "Feature", "properties": {"capacity": 2.0, "data_source": "BNA,OSM", "dc_support": true, "max_kw": 50.0, "operator": "SWM Versorgungs GmbH", "socket_type_list": ["DC Kupplung Combo", " DC CHAdeMO", "AC Steckdose Typ 2"], "station_id": 98750, "street": "Detmoldstr. 1", "total_kw": 50.0, "town": "M\u00fcnchen"}, "geometry": {"type": "Point", "coordinates": [11.5641738, 48.1926515]}}, {"id": "34", "type": "Feature", "properties": {"capacity": 2.0, "data_source": "BNA,OSM", "dc_support": false, "max_kw": 22.0, "operator": "SWM Versorgungs GmbH", "socket_type_list": ["AC Steckdose Typ 2", "AC Steckdose Typ 2"], "station_id": 98751, "street": "Phantasiestr. 1", "total_kw": 22.0, "town": "M\u00fcnchen"}, "geometry": {"type": "Point", "coordinates": [11.7021004, 48.1135059]}}, {"id": "35", "type": "Feature", "properties": {"capacity": 2.0, "data_source": "BNA,OCM,OSM", "dc_support": true, "max_kw": 150.0, "operator": "Allego GmbH", "socket_type_list": ["DC Kupplung Combo", "DC Kupplung Combo"], "station_id": 98752, "street": "Mies-van-der-Rohe-Stra\u00dfe 1", "total_kw": 150.0, "town": "M\u00fcnchen"}, "geometry": {"type": "Point", "coordinates": [11.5914781, 48.1769641]}}, {"id": "36", "type": "Feature", "properties": {"capacity": 1.0, "data_source": "BNA,OCM,OSM", "dc_support": false, "max_kw": 3.7, "operator": "E.ON Drive GmbH", "socket_type_list": ["AC Steckdose Typ 2"], "station_id": 98755, "street": "Am Olympiapark 1", "total_kw": 3.7, "town": "M\u00fcnchen"}, "geometry": {"type": "Point", "coordinates": [11.5568667, 48.1778601]}}, {"id": "37", "type": "Feature", "properties": {"capacity": 1.0, "data_source": "BNA", "dc_support": false, "max_kw": 3.7, "operator": "E.ON Drive GmbH", "socket_type_list": ["AC Steckdose Typ 2"], "station_id": 98758, "street": "Am Olympiapark 1", "total_kw": 3.7, "town": "M\u00fcnchen"}, "geometry": {"type": "Point", "coordinates": [11.556576, 48.151167]}}, {"id": "38", "type": "Feature", "properties": {"capacity": 2.0, "data_source": "BNA", "dc_support": true, "max_kw": 75.0, "operator": "EWE Go GmbH", "socket_type_list": ["DC Kupplung Combo", " DC CHAdeMO", "AC Steckdose Typ 2"], "station_id": 98759, "street": "Maria-Probst-Str. 1", "total_kw": 100.0, "town": "M\u00fcnchen"}, "geometry": {"type": "Point", "coordinates": [11.584621667862, 48.192455102229]}}, {"id": "39", "type": "Feature", "properties": {"capacity": 2.0, "data_source": "BNA,OCM,OSM", "dc_support": false, "max_kw": 22.0, "operator": "SWM Versorgungs GmbH", "socket_type_list": ["AC Steckdose Typ 2", "AC Steckdose Typ 2"], "station_id": 98760, "street": "Albrechtstr. 2", "total_kw": 22.0, "town": "M\u00fcnchen"}, "geometry": {"type": "Point", "coordinates": [11.5449424, 48.1513026]}}, {"id": "40", "type": "Feature", "properties": {"capacity": 2.0, "data_source": "BNA,OCM,OSM", "dc_support": false, "max_kw": 22.0, "operator": "SWM Versorgungs GmbH", "socket_type_list": ["AC Steckdose Typ 2", "AC Steckdose Typ 2"], "station_id": 98761, "street": "Werinherstr. 2", "total_kw": 22.0, "town": "M\u00fcnchen"}, "geometry": {"type": "Point", "coordinates": [11.5808513, 48.1154995]}}, {"id": "41", "type": "Feature", "properties": {"capacity": 2.0, "data_source": "BNA,OCM,OSM", "dc_support": false, "max_kw": 22.0, "operator": "SWM Versorgungs GmbH", "socket_type_list": ["AC Steckdose Typ 2", "AC Steckdose Typ 2"], "station_id": 98762, "street": "Stuntzstr. 2a", "total_kw": 22.0, "town": "M\u00fcnchen"}, "geometry": {"type": "Point", "coordinates": [11.6157565, 48.1423945]}}, {"id": "42", "type": "Feature", "properties": {"capacity": 2.0, "data_source": "BNA,OCM,OSM", "dc_support": false, "max_kw": 22.0, "operator": "SWM Versorgungs GmbH", "socket_type_list": ["AC Steckdose Typ 2", "AC Steckdose Typ 2"], "station_id": 98763, "street": "Urbanstr. 6", "total_kw": 22.0, "town": "M\u00fcnchen"}, "geometry": {"type": "Point", "coordinates": [11.5483801, 48.1110628]}}, {"id": "43", "type": "Feature", "properties": {"capacity": 2.0, "data_source": "BNA,OCM,OSM", "dc_support": false, "max_kw": 22.0, "operator": "SWM Versorgungs GmbH", "socket_type_list": ["AC Steckdose Typ 2", "AC Steckdose Typ 2"], "station_id": 98764, "street": "Sachsenkamstr. 2a", "total_kw": 22.0, "town": "M\u00fcnchen"}, "geometry": {"type": "Point", "coordinates": [11.5258702, 48.1158724]}}, {"id": "44", "type": "Feature", "properties": {"capacity": 2.0, "data_source": "BNA,OCM,OSM", "dc_support": false, "max_kw": 22.0, "operator": "SWM Versorgungs GmbH", "socket_type_list": ["AC Steckdose Typ 2", "AC Steckdose Typ 2"], "station_id": 98765, "street": "Morassistr. 10", "total_kw": 22.0, "town": "M\u00fcnchen"}, "geometry": {"type": "Point", "coordinates": [11.5825362, 48.1322141]}}, {"id": "45", "type": "Feature", "properties": {"capacity": 2.0, "data_source": "BNA,OCM,OSM", "dc_support": false, "max_kw": 22.0, "operator": "SWM Versorgungs GmbH", "socket_type_list": ["AC Steckdose Typ 2", "AC Steckdose Typ 2"], "station_id": 98766, "street": "Hollandstr. 2a", "total_kw": 22.0, "town": "M\u00fcnchen"}, "geometry": {"type": "Point", "coordinates": [11.5968097, 48.1723247]}}, {"id": "46", "type": "Feature", "properties": {"capacity": 2.0, "data_source": "BNA,OCM,OSM", "dc_support": false, "max_kw": 22.0, "operator": "SWM Versorgungs GmbH", "socket_type_list": ["AC Steckdose Typ 2", "AC Steckdose Typ 2"], "station_id": 98767, "street": "Reginfriedstr. 2a", "total_kw": 22.0, "town": "M\u00fcnchen"}, "geometry": {"type": "Point", "coordinates": [11.5776767, 48.1102868]}}, {"id": "47", "type": "Feature", "properties": {"capacity": 2.0, "data_source": "BNA,OCM,OSM", "dc_support": false, "max_kw": 22.0, "operator": "SWM Versorgungs GmbH", "socket_type_list": ["AC Steckdose Typ 2", "AC Steckdose Typ 2"], "station_id": 98768, "street": "Gronsdorfer Str. 2", "total_kw": 22.0, "town": "M\u00fcnchen"}, "geometry": {"type": "Point", "coordinates": [11.6443247, 48.1239437]}}, {"id": "48", "type": "Feature", "properties": {"capacity": 2.0, "data_source": "BNA,OSM", "dc_support": false, "max_kw": 22.0, "operator": "SWM Versorgungs GmbH", "socket_type_list": ["AC Steckdose Typ 2", "AC Steckdose Typ 2"], "station_id": 98769, "street": "Hirschbergstr. 2a", "total_kw": 22.0, "town": "M\u00fcnchen"}, "geometry": {"type": "Point", "coordinates": [11.5359765, 48.1491496]}}, {"id": "49", "type": "Feature", "properties": {"capacity": 2.0, "data_source": "BNA,OCM,OSM", "dc_support": false, "max_kw": 22.0, "operator": "SWM Versorgungs GmbH", "socket_type_list": ["AC Steckdose Typ 2", "AC Steckdose Typ 2"], "station_id": 98770, "street": "Kleinstr. 2a", "total_kw": 22.0, "town": "M\u00fcnchen"}, "geometry": {"type": "Point", "coordinates": [11.5396602, 48.1000551]}}, {"id": "50", "type": "Feature", "properties": {"capacity": 2.0, "data_source": "BNA,OSM", "dc_support": false, "max_kw": 22.0, "operator": "SWM Versorgungs GmbH", "socket_type_list": ["AC Steckdose Typ 2", "AC Steckdose Typ 2"], "station_id": 98771, "street": "Zentttipl. 2a", "total_kw": 22.0, "town": "M\u00fcnchen"}, "geometry": {"type": "Point", "coordinates": [11.5557651, 48.1244313]}}, {"id": "51", "type": "Feature", "properties": {"capacity": 2.0, "data_source": "BNA,OCM,OSM", "dc_support": false, "max_kw": 22.0, "operator": "SWM Versorgungs GmbH", "socket_type_list": ["AC Steckdose Typ 2", "AC Steckdose Typ 2"], "station_id": 98772, "street": "Ganghoferstr. 2a", "total_kw": 22.0, "town": "M\u00fcnchen"}, "geometry": {"type": "Point", "coordinates": [11.5406533, 48.1380519]}}, {"id": "52", "type": "Feature", "properties": {"capacity": 2.0, "data_source": "BNA,OCM,OSM", "dc_support": false, "max_kw": 22.0, "operator": "SWM Versorgungs GmbH", "socket_type_list": ["AC Steckdose Typ 2", "AC Steckdose Typ 2"], "station_id": 98773, "street": "Emmy-Noether-Str. 2a", "total_kw": 22.0, "town": "M\u00fcnchen"}, "geometry": {"type": "Point", "coordinates": [11.5310424, 48.1712911]}}, {"id": "53", "type": "Feature", "properties": {"capacity": 2.0, "data_source": "BNA,OCM,OSM", "dc_support": false, "max_kw": 22.0, "operator": "SWM Versorgungs GmbH", "socket_type_list": ["AC Steckdose Typ 2", "AC Steckdose Typ 2"], "station_id": 98774, "street": "Kr\u00fcner Str. 2a", "total_kw": 22.0, "town": "M\u00fcnchen"}, "geometry": {"type": "Point", "coordinates": [11.5279923, 48.1184001]}}, {"id": "54", "type": "Feature", "properties": {"capacity": 2.0, "data_source": "BNA,OCM,OSM", "dc_support": false, "max_kw": 22.0, "operator": "SWM Versorgungs GmbH", "socket_type_list": ["AC Steckdose Typ 2", "AC Steckdose Typ 2"], "station_id": 98775, "street": "Hugo-Wei\u00df-Str. 2a", "total_kw": 22.0, "town": "M\u00fcnchen"}, "geometry": {"type": "Point", "coordinates": [11.6768729, 48.1126181]}}, {"id": "55", "type": "Feature", "properties": {"capacity": 2.0, "data_source": "BNA,OSM", "dc_support": false, "max_kw": 22.0, "operator": "SWM Versorgungs GmbH", "socket_type_list": ["AC Steckdose Typ 2", "AC Steckdose Typ 2"], "station_id": 98776, "street": "Oskar-Maria-Graf-Ring 2", "total_kw": 22.0, "town": "M\u00fcnchen"}, "geometry": {"type": "Point", "coordinates": [11.6577335, 48.0983579]}}, {"id": "56", "type": "Feature", "properties": {"capacity": 2.0, "data_source": "BNA,OSM", "dc_support": false, "max_kw": 22.0, "operator": "SWM Versorgungs GmbH", "socket_type_list": ["AC Steckdose Typ 2", "AC Steckdose Typ 2"], "station_id": 98777, "street": "Lebscheestr. 2a", "total_kw": 22.0, "town": "M\u00fcnchen"}, "geometry": {"type": "Point", "coordinates": [11.5655889, 48.1072569]}}, {"id": "57", "type": "Feature", "properties": {"capacity": 2.0, "data_source": "BNA,OCM", "dc_support": false, "max_kw": 22.0, "operator": "SWM Versorgungs GmbH", "socket_type_list": ["AC Steckdose Typ 2", "AC Steckdose Typ 2"], "station_id": 98778, "street": "Sckellstr. 3", "total_kw": 22.0, "town": "M\u00fcnchen"}, "geometry": {"type": "Point", "coordinates": [11.596112, 48.135199]}}, {"id": "58", "type": "Feature", "properties": {"capacity": 2.0, "data_source": "BNA", "dc_support": false, "max_kw": 22.0, "operator": "SWM Versorgungs GmbH", "socket_type_list": ["AC Steckdose Typ 2", "AC Steckdose Typ 2"], "station_id": 98779, "street": "Eduard-Schmid-Str. 2a", "total_kw": 22.0, "town": "M\u00fcnchen"}, "geometry": {"type": "Point", "coordinates": [11.580714, 48.127665]}}, {"id": "59", "type": "Feature", "properties": {"capacity": 2.0, "data_source": "BNA,OCM,OSM", "dc_support": false, "max_kw": 22.0, "operator": "SWM Versorgungs GmbH", "socket_type_list": ["AC Steckdose Typ 2", "AC Steckdose Typ 2"], "station_id": 98780, "street": "Nikolaistr. 2", "total_kw": 22.0, "town": "M\u00fcnchen"}, "geometry": {"type": "Point", "coordinates": [11.5858434, 48.1590534]}}, {"id": "60", "type": "Feature", "properties": {"capacity": 2.0, "data_source": "BNA,OCM,OSM", "dc_support": false, "max_kw": 22.0, "operator": "SWM Versorgungs GmbH", "socket_type_list": ["AC Steckdose Typ 2", "AC Steckdose Typ 2"], "station_id": 98781, "street": "Schinkelstr. 2", "total_kw": 22.0, "town": "M\u00fcnchen"}, "geometry": {"type": "Point", "coordinates": [11.5897917, 48.1738955]}}, {"id": "61", "type": "Feature", "properties": {"capacity": 2.0, "data_source": "BNA,OCM,OSM", "dc_support": false, "max_kw": 22.0, "operator": "SWM Versorgungs GmbH", "socket_type_list": ["AC Steckdose Typ 2", "AC Steckdose Typ 2"], "station_id": 98782, "street": "Stengelstr. 2a", "total_kw": 22.0, "town": "M\u00fcnchen"}, "geometry": {"type": "Point", "coordinates": [11.5941415, 48.1697607]}}, {"id": "62", "type": "Feature", "properties": {"capacity": 2.0, "data_source": "BNA,OCM", "dc_support": false, "max_kw": 22.0, "operator": "SWM Versorgungs GmbH", "socket_type_list": ["AC Steckdose Typ 2", "AC Steckdose Typ 2"], "station_id": 98783, "street": "H\u00f6rwarthstr. 2a", "total_kw": 22.0, "town": "M\u00fcnchen"}, "geometry": {"type": "Point", "coordinates": [11.585614, 48.168526]}}, {"id": "63", "type": "Feature", "properties": {"capacity": 2.0, "data_source": "BNA,OCM,OSM", "dc_support": false, "max_kw": 22.0, "operator": "SWM Versorgungs GmbH", "socket_type_list": ["AC Steckdose Typ 2", "AC Steckdose Typ 2"], "station_id": 98784, "street": "Wastl-Witt-Str. 2a", "total_kw": 22.0, "town": "M\u00fcnchen"}, "geometry": {"type": "Point", "coordinates": [11.473823, 48.1281928]}}, {"id": "64", "type": "Feature", "properties": {"capacity": 2.0, "data_source": "BNA,OSM", "dc_support": false, "max_kw": 22.0, "operator": "SWM Versorgungs GmbH", "socket_type_list": ["AC Steckdose Typ 2", "AC Steckdose Typ 2"], "station_id": 98785, "street": "Kupferhammerstr. 2a", "total_kw": 22.0, "town": "M\u00fcnchen"}, "geometry": {"type": "Point", "coordinates": [11.5748234, 48.1183337]}}, {"id": "65", "type": "Feature", "properties": {"capacity": 2.0, "data_source": "BNA,OCM,OSM", "dc_support": false, "max_kw": 22.0, "operator": "SWM Versorgungs GmbH", "socket_type_list": ["AC Steckdose Typ 2", "AC Steckdose Typ 2"], "station_id": 98786, "street": "Limmatstr. 2", "total_kw": 22.0, "town": "M\u00fcnchen"}, "geometry": {"type": "Point", "coordinates": [11.5009722, 48.0944867]}}, {"id": "66", "type": "Feature", "properties": {"capacity": 2.0, "data_source": "BNA,OCM,OSM", "dc_support": false, "max_kw": 22.0, "operator": "SWM Versorgungs GmbH", "socket_type_list": ["AC Steckdose Typ 2", "AC Steckdose Typ 2"], "station_id": 98787, "street": "Wei\u00dfenseestr. 2a", "total_kw": 22.0, "town": "M\u00fcnchen"}, "geometry": {"type": "Point", "coordinates": [11.5955042, 48.1076935]}}, {"id": "67", "type": "Feature", "properties": {"capacity": 2.0, "data_source": "BNA,OCM", "dc_support": false, "max_kw": 22.0, "operator": "SWM Versorgungs GmbH", "socket_type_list": ["AC Steckdose Typ 2", "AC Steckdose Typ 2"], "station_id": 98788, "street": "Inderstorfer Str. 4", "total_kw": 22.0, "town": "M\u00fcnchen"}, "geometry": {"type": "Point", "coordinates": [11.501788, 48.128995]}}, {"id": "68", "type": "Feature", "properties": {"capacity": 2.0, "data_source": "BNA,OCM,OSM", "dc_support": false, "max_kw": 22.0, "operator": "SWM Versorgungs GmbH", "socket_type_list": ["AC Steckdose Typ 2", "AC Steckdose Typ 2"], "station_id": 98789, "street": "Gertrud-B\u00e4umer-Str. 2a", "total_kw": 22.0, "town": "M\u00fcnchen"}, "geometry": {"type": "Point", "coordinates": [11.5457067, 48.1625184]}}, {"id": "69", "type": "Feature", "properties": {"capacity": 2.0, "data_source": "BNA,OCM", "dc_support": false, "max_kw": 22.0, "operator": "SWM Versorgungs GmbH", "socket_type_list": ["AC Steckdose Typ 2", "AC Steckdose Typ 2"], "station_id": 98790, "street": "Karl-Hromadnik-Str. 2", "total_kw": 22.0, "town": "M\u00fcnchen"}, "geometry": {"type": "Point", "coordinates": [11.456796, 48.137018]}}, {"id": "70", "type": "Feature", "properties": {"capacity": 2.0, "data_source": "BNA,OSM", "dc_support": false, "max_kw": 22.0, "operator": "SWM Versorgungs GmbH", "socket_type_list": ["AC Steckdose Typ 2", "AC Steckdose Typ 2"], "station_id": 98791, "street": "Albert-Bayerle-Platz 2a", "total_kw": 22.0, "town": "M\u00fcnchen"}, "geometry": {"type": "Point", "coordinates": [11.5297087, 48.1001177]}}, {"id": "71", "type": "Feature", "properties": {"capacity": 2.0, "data_source": "BNA,OSM", "dc_support": false, "max_kw": 22.0, "operator": "SWM Versorgungs GmbH", "socket_type_list": ["AC Steckdose Typ 2", "AC Steckdose Typ 2"], "station_id": 98792, "street": "Leutstettener Str. 2", "total_kw": 22.0, "town": "M\u00fcnchen"}, "geometry": {"type": "Point", "coordinates": [11.5223159, 48.0935787]}}, {"id": "72", "type": "Feature", "properties": {"capacity": 2.0, "data_source": "BNA,OSM", "dc_support": false, "max_kw": 22.0, "operator": "SWM Versorgungs GmbH", "socket_type_list": ["AC Steckdose Typ 2", "AC Steckdose Typ 2"], "station_id": 98793, "street": "Bruggspergerstr. 2", "total_kw": 22.0, "town": "M\u00fcnchen"}, "geometry": {"type": "Point", "coordinates": [11.5611298, 48.0863613]}}, {"id": "73", "type": "Feature", "properties": {"capacity": 2.0, "data_source": "BNA", "dc_support": true, "max_kw": 50.0, "operator": "SWM Versorgungs GmbH", "socket_type_list": ["DC Kupplung Combo", " DC CHAdeMO", "AC Steckdose Typ 2"], "station_id": 98794, "street": "Staffelseestr. 2", "total_kw": 50.0, "town": "M\u00fcnchen"}, "geometry": {"type": "Point", "coordinates": [11.506566, 48.09215]}}, {"id": "74", "type": "Feature", "properties": {"capacity": 4.0, "data_source": "BNA,OCM", "dc_support": false, "max_kw": 22.0, "operator": "Park One GmbH", "socket_type_list": ["AC Steckdose Typ 2", "AC Steckdose Typ 2", "AC Steckdose Typ 2", "AC Steckdose Typ 2"], "station_id": 98795, "street": "Lilli-Palmer-Stra\u00dfe 2", "total_kw": 22.0, "town": "M\u00fcnchen"}, "geometry": {"type": "Point", "coordinates": [11.5376431804, 48.1443019699]}}, {"id": "75", "type": "Feature", "properties": {"capacity": 2.0, "data_source": "BNA", "dc_support": false, "max_kw": 11.0, "operator": "ChargeOne", "socket_type_list": ["AC Steckdose Typ 2", "AC Steckdose Typ 2"], "station_id": 98796, "street": "Weimarer Stra\u00dfe 2", "total_kw": 11.0, "town": "M\u00fcnchen"}, "geometry": {"type": "Point", "coordinates": [11.587891, 48.184786]}}, {"id": "76", "type": "Feature", "properties": {"capacity": 2.0, "data_source": "BNA,OCM,OSM", "dc_support": false, "max_kw": 22.0, "operator": "SWM Versorgungs GmbH", "socket_type_list": ["AC Steckdose Typ 2", "AC Steckdose Typ 2"], "station_id": 98797, "street": "Birnauer Str. 3", "total_kw": 22.0, "town": "M\u00fcnchen"}, "geometry": {"type": "Point", "coordinates": [11.5656563, 48.1750617]}}, {"id": "77", "type": "Feature", "properties": {"capacity": 2.0, "data_source": "BNA,OCM,OSM", "dc_support": false, "max_kw": 22.0, "operator": "SWM Versorgungs GmbH", "socket_type_list": ["AC Steckdose Typ 2", "AC Steckdose Typ 2"], "station_id": 98798, "street": "Kathi-Kobus-Str. 3", "total_kw": 22.0, "town": "M\u00fcnchen"}, "geometry": {"type": "Point", "coordinates": [11.556843, 48.1594532]}}, {"id": "78", "type": "Feature", "properties": {"capacity": 2.0, "data_source": "BNA,OCM,OSM", "dc_support": false, "max_kw": 22.0, "operator": "SWM Versorgungs GmbH", "socket_type_list": ["AC Steckdose Typ 2", "AC Steckdose Typ 2"], "station_id": 98799, "street": "Pfarrstr. 3", "total_kw": 22.0, "town": "M\u00fcnchen"}, "geometry": {"type": "Point", "coordinates": [11.5875635, 48.1393071]}}, {"id": "79", "type": "Feature", "properties": {"capacity": 2.0, "data_source": "BNA,OCM,OSM", "dc_support": false, "max_kw": 22.0, "operator": "SWM Versorgungs GmbH", "socket_type_list": ["AC Steckdose Typ 2", "AC Steckdose Typ 2"], "station_id": 98800, "street": "Langb\u00fcrgener Str. 3a", "total_kw": 22.0, "town": "M\u00fcnchen"}, "geometry": {"type": "Point", "coordinates": [11.6125196, 48.1102036]}}, {"id": "80", "type": "Feature", "properties": {"capacity": 2.0, "data_source": "BNA,OSM", "dc_support": false, "max_kw": 22.0, "operator": "SWM Versorgungs GmbH", "socket_type_list": ["AC Steckdose Typ 2", "AC Steckdose Typ 2"], "station_id": 98801, "street": "Am Knie 3a", "total_kw": 22.0, "town": "M\u00fcnchen"}, "geometry": {"type": "Point", "coordinates": [11.4740742, 48.142584]}}, {"id": "81", "type": "Feature", "properties": {"capacity": 2.0, "data_source": "BNA,OCM,OSM", "dc_support": false, "max_kw": 22.0, "operator": "SWM Versorgungs GmbH", "socket_type_list": ["AC Steckdose Typ 2", "AC Steckdose Typ 2"], "station_id": 98802, "street": "Steubenpl. 4", "total_kw": 22.0, "town": "M\u00fcnchen"}, "geometry": {"type": "Point", "coordinates": [11.5200353, 48.1511664]}}, {"id": "82", "type": "Feature", "properties": {"capacity": 2.0, "data_source": "BNA,OCM,OSM", "dc_support": false, "max_kw": 22.0, "operator": "SWM Versorgungs GmbH", "socket_type_list": ["AC Steckdose Typ 2", "AC Steckdose Typ 2"], "station_id": 98803, "street": "Titurelstr. 3", "total_kw": 22.0, "town": "M\u00fcnchen"}, "geometry": {"type": "Point", "coordinates": [11.6185541, 48.1603177]}}, {"id": "83", "type": "Feature", "properties": {"capacity": 2.0, "data_source": "BNA,OCM,OSM", "dc_support": true, "max_kw": 50.0, "operator": "SWM Versorgungs GmbH", "socket_type_list": ["DC Kupplung Combo", " DC CHAdeMO", "AC Steckdose Typ 2"], "station_id": 98804, "street": "Marklandstr. 8a", "total_kw": 50.0, "town": "M\u00fcnchen"}, "geometry": {"type": "Point", "coordinates": [11.6045007, 48.0925136]}}, {"id": "84", "type": "Feature", "properties": {"capacity": 2.0, "data_source": "BNA", "dc_support": true, "max_kw": 50.0, "operator": "SWM Versorgungs GmbH", "socket_type_list": ["DC Kupplung Combo", " DC CHAdeMO", "AC Steckdose Typ 2"], "station_id": 98805, "street": "Gustav-Mahler-Str. 3", "total_kw": 50.0, "town": "M\u00fcnchen"}, "geometry": {"type": "Point", "coordinates": [11.602783, 48.201249]}}, {"id": "85", "type": "Feature", "properties": {"capacity": 2.0, "data_source": "BNA,OCM,OSM", "dc_support": false, "max_kw": 22.0, "operator": "SWM Versorgungs GmbH", "socket_type_list": ["AC Steckdose Typ 2", "AC Steckdose Typ 2"], "station_id": 98806, "street": "Marchioninistr. 4", "total_kw": 22.0, "town": "M\u00fcnchen"}, "geometry": {"type": "Point", "coordinates": [11.476349, 48.1134019]}}, {"id": "86", "type": "Feature", "properties": {"capacity": 2.0, "data_source": "BNA,OCM,OSM", "dc_support": false, "max_kw": 22.0, "operator": "SWM Versorgungs GmbH", "socket_type_list": ["AC Steckdose Typ 2", "AC Steckdose Typ 2"], "station_id": 98807, "street": "Bauerstr. 4", "total_kw": 22.0, "town": "M\u00fcnchen"}, "geometry": {"type": "Point", "coordinates": [11.5739817, 48.1589335]}}, {"id": "87", "type": "Feature", "properties": {"capacity": 2.0, "data_source": "BNA,OCM,OSM", "dc_support": false, "max_kw": 22.0, "operator": "SWM Versorgungs GmbH", "socket_type_list": ["AC Steckdose Typ 2", "AC Steckdose Typ 2"], "station_id": 98808, "street": "Oberbiberger Str. 6", "total_kw": 22.0, "town": "M\u00fcnchen"}, "geometry": {"type": "Point", "coordinates": [11.5809068, 48.0971905]}}, {"id": "88", "type": "Feature", "properties": {"capacity": 2.0, "data_source": "BNA,OCM,OSM", "dc_support": false, "max_kw": 22.0, "operator": "SWM Versorgungs GmbH", "socket_type_list": ["AC Steckdose Typ 2", "AC Steckdose Typ 2"], "station_id": 98809, "street": "Krumpterstr. 6", "total_kw": 22.0, "town": "M\u00fcnchen"}, "geometry": {"type": "Point", "coordinates": [11.5704039, 48.1130515]}}, {"id": "89", "type": "Feature", "properties": {"capacity": 2.0, "data_source": "BNA,OCM,OSM", "dc_support": false, "max_kw": 22.0, "operator": "SWM Versorgungs GmbH", "socket_type_list": ["AC Steckdose Typ 2", "AC Steckdose Typ 2"], "station_id": 98810, "street": "Grasmeierstr. 4a", "total_kw": 22.0, "town": "M\u00fcnchen"}, "geometry": {"type": "Point", "coordinates": [11.6082, 48.183146]}}, {"id": "90", "type": "Feature", "properties": {"capacity": 2.0, "data_source": "BNA,OSM", "dc_support": false, "max_kw": 22.0, "operator": "SWM Versorgungs GmbH", "socket_type_list": ["AC Steckdose Typ 2", "AC Steckdose Typ 2"], "station_id": 98811, "street": "Terofalstr. 4a", "total_kw": 22.0, "town": "M\u00fcnchen"}, "geometry": {"type": "Point", "coordinates": [11.4773387, 48.1257527]}}, {"id": "91", "type": "Feature", "properties": {"capacity": 2.0, "data_source": "BNA,OCM,OSM", "dc_support": false, "max_kw": 22.0, "operator": "SWM Versorgungs GmbH", "socket_type_list": ["AC Steckdose Typ 2", "AC Steckdose Typ 2"], "station_id": 98812, "street": "Beethovenplatz 4", "total_kw": 22.0, "town": "M\u00fcnchen"}, "geometry": {"type": "Point", "coordinates": [11.5581776, 48.1325786]}}, {"id": "92", "type": "Feature", "properties": {"capacity": 2.0, "data_source": "BNA,OCM,OSM", "dc_support": false, "max_kw": 22.0, "operator": "SWM Versorgungs GmbH", "socket_type_list": ["AC Steckdose Typ 2", "AC Steckdose Typ 2"], "station_id": 98813, "street": "Alpenveilchenstr. 4a", "total_kw": 22.0, "town": "M\u00fcnchen"}, "geometry": {"type": "Point", "coordinates": [11.4900256, 48.124847]}}, {"id": "93", "type": "Feature", "properties": {"capacity": 2.0, "data_source": "BNA,OSM", "dc_support": false, "max_kw": 22.0, "operator": "SWM Versorgungs GmbH", "socket_type_list": ["AC Steckdose Typ 2", "AC Steckdose Typ 2"], "station_id": 98814, "street": "Holzhofstr. 4", "total_kw": 22.0, "town": "M\u00fcnchen"}, "geometry": {"type": "Point", "coordinates": [11.5934253, 48.132099]}}, {"id": "94", "type": "Feature", "properties": {"capacity": 2.0, "data_source": "BNA,OCM", "dc_support": false, "max_kw": 22.0, "operator": "SWM Versorgungs GmbH", "socket_type_list": ["AC Steckdose Typ 2", "AC Steckdose Typ 2"], "station_id": 98815, "street": "Galeriestr. 4a", "total_kw": 22.0, "town": "M\u00fcnchen"}, "geometry": {"type": "Point", "coordinates": [11.58049, 48.143779]}}, {"id": "95", "type": "Feature", "properties": {"capacity": 2.0, "data_source": "BNA,OCM,OSM", "dc_support": false, "max_kw": 22.0, "operator": "SWM Versorgungs GmbH", "socket_type_list": ["AC Steckdose Typ 2", "AC Steckdose Typ 2"], "station_id": 98816, "street": "Sternwartstr. 4a", "total_kw": 22.0, "town": "M\u00fcnchen"}, "geometry": {"type": "Point", "coordinates": [11.6038735, 48.1456383]}}, {"id": "96", "type": "Feature", "properties": {"capacity": 2.0, "data_source": "BNA,OSM", "dc_support": true, "max_kw": 50.0, "operator": "SWM Versorgungs GmbH", "socket_type_list": ["DC Kupplung Combo", " DC CHAdeMO", "AC Steckdose Typ 2"], "station_id": 98818, "street": "Deroystr. 4", "total_kw": 50.0, "town": "M\u00fcnchen"}, "geometry": {"type": "Point", "coordinates": [11.5460085, 48.1457829]}}, {"id": "97", "type": "Feature", "properties": {"capacity": 2.0, "data_source": "BNA", "dc_support": false, "max_kw": 22.0, "operator": "SWM Versorgungs GmbH", "socket_type_list": ["AC Steckdose Typ 2", "AC Steckdose Typ 2"], "station_id": 98819, "street": "Finkenstr. 4a", "total_kw": 22.0, "town": "M\u00fcnchen"}, "geometry": {"type": "Point", "coordinates": [11.575106, 48.143795]}}, {"id": "98", "type": "Feature", "properties": {"capacity": 3.0, "data_source": "BNA,OCM", "dc_support": false, "max_kw": 22.0, "operator": "symCharge GmbH", "socket_type_list": ["AC Steckdose Typ 2", "AC Steckdose Typ 2", "AC Steckdose Typ 2"], "station_id": 98820, "street": "Max-Joseph-Platz 4", "total_kw": 30.0, "town": "M\u00fcnchen"}, "geometry": {"type": "Point", "coordinates": [11.57764, 48.14049]}}, {"id": "99", "type": "Feature", "properties": {"capacity": 2.0, "data_source": "BNA,OCM", "dc_support": true, "max_kw": 50.0, "operator": "Pfalzwerke AG", "socket_type_list": ["AC Kupplung Typ 2", "DC Kupplung Combo", " DC CHAdeMO"], "station_id": 98821, "street": "Muthmannstra\u00dfe 4", "total_kw": 75.0, "town": "M\u00fcnchen"}, "geometry": {"type": "Point", "coordinates": [11.618373, 48.204244]}}, {"id": "100", "type": "Feature", "properties": {"capacity": 2.0, "data_source": "BNA,OCM,OSM", "dc_support": true, "max_kw": 150.0, "operator": "BayWa AG", "socket_type_list": ["DC Kupplung Combo", " DC CHAdeMO", "AC Steckdose Typ 2"], "station_id": 98822, "street": "Arabellastr. 4", "total_kw": 150.0, "town": "M\u00fcnchen"}, "geometry": {"type": "Point", "coordinates": [11.6175755, 48.1529144]}}, {"id": "101", "type": "Feature", "properties": {"capacity": 2.0, "data_source": "BNA,OSM", "dc_support": false, "max_kw": 22.0, "operator": "SWM Versorgungs GmbH", "socket_type_list": ["AC Steckdose Typ 2", "AC Steckdose Typ 2"], "station_id": 98823, "street": "Arabellastr. 5", "total_kw": 22.0, "town": "M\u00fcnchen"}, "geometry": {"type": "Point", "coordinates": [11.6180294, 48.1521199]}}, {"id": "102", "type": "Feature", "properties": {"capacity": 2.0, "data_source": "BNA", "dc_support": true, "max_kw": 22.0, "operator": "Autohaus Burgstaller GmbH", "socket_type_list": ["DC Kupplung Combo", "AC Steckdose Typ 2"], "station_id": 98824, "street": "Posener Pl. 4", "total_kw": 39.6, "town": "M\u00fcnchen"}, "geometry": {"type": "Point", "coordinates": [11.641038, 48.148244]}}, {"id": "103", "type": "Feature", "properties": {"capacity": 4.0, "data_source": "BNA", "dc_support": false, "max_kw": 11.0, "operator": "ChargeOne", "socket_type_list": ["AC Steckdose Typ 2", "AC Steckdose Typ 2", "AC Steckdose Typ 2", "AC Steckdose Typ 2"], "station_id": 98825, "street": "Stahlgruberring 4", "total_kw": 11.0, "town": "M\u00fcnchen"}, "geometry": {"type": "Point", "coordinates": [11.66317, 48.13296]}}, {"id": "104", "type": "Feature", "properties": {"capacity": 2.0, "data_source": "BNA,OCM,OSM", "dc_support": false, "max_kw": 22.0, "operator": "SWM Versorgungs GmbH", "socket_type_list": ["AC Steckdose Typ 2", "AC Steckdose Typ 2"], "station_id": 98826, "street": "Hans-Thonauer-Str. 5", "total_kw": 22.0, "town": "M\u00fcnchen"}, "geometry": {"type": "Point", "coordinates": [11.5170383, 48.1334286]}}, {"id": "105", "type": "Feature", "properties": {"capacity": 2.0, "data_source": "BNA,OCM,OSM", "dc_support": false, "max_kw": 22.0, "operator": "SWM Versorgungs GmbH", "socket_type_list": ["AC Steckdose Typ 2", "AC Steckdose Typ 2"], "station_id": 98827, "street": "Leonrodpl. 5", "total_kw": 22.0, "town": "M\u00fcnchen"}, "geometry": {"type": "Point", "coordinates": [11.5467085, 48.1593756]}}, {"id": "106", "type": "Feature", "properties": {"capacity": 2.0, "data_source": "BNA,OCM,OSM", "dc_support": false, "max_kw": 22.0, "operator": "SWM Versorgungs GmbH", "socket_type_list": ["AC Steckdose Typ 2", "AC Steckdose Typ 2"], "station_id": 98828, "street": "Bavariastr. 5a", "total_kw": 22.0, "town": "M\u00fcnchen"}, "geometry": {"type": "Point", "coordinates": [11.5463316, 48.1265235]}}, {"id": "107", "type": "Feature", "properties": {"capacity": 2.0, "data_source": "BNA,OCM,OSM", "dc_support": false, "max_kw": 22.0, "operator": "SWM Versorgungs GmbH", "socket_type_list": ["AC Steckdose Typ 2", "AC Steckdose Typ 2"], "station_id": 98829, "street": "Pfanzeltplatz 5a", "total_kw": 22.0, "town": "M\u00fcnchen"}, "geometry": {"type": "Point", "coordinates": [11.6308829, 48.1008878]}}, {"id": "108", "type": "Feature", "properties": {"capacity": 2.0, "data_source": "BNA,OCM,OSM", "dc_support": false, "max_kw": 22.0, "operator": "SWM Versorgungs GmbH", "socket_type_list": ["AC Steckdose Typ 2", "AC Steckdose Typ 2"], "station_id": 98830, "street": "Josef-Lang-Str. 7", "total_kw": 22.0, "town": "M\u00fcnchen"}, "geometry": {"type": "Point", "coordinates": [11.471538, 48.14993]}}, {"id": "109", "type": "Feature", "properties": {"capacity": 2.0, "data_source": "BNA,OCM,OSM", "dc_support": false, "max_kw": 22.0, "operator": "SWM Versorgungs GmbH", "socket_type_list": ["AC Steckdose Typ 2", "AC Steckdose Typ 2"], "station_id": 98831, "street": "Peter-Kreuder-Str. 5a", "total_kw": 22.0, "town": "M\u00fcnchen"}, "geometry": {"type": "Point", "coordinates": [11.4457155, 48.1597594]}}, {"id": "110", "type": "Feature", "properties": {"capacity": 2.0, "data_source": "BNA,OCM,OSM", "dc_support": false, "max_kw": 22.0, "operator": "SWM Versorgungs GmbH", "socket_type_list": ["AC Steckdose Typ 2", "AC Steckdose Typ 2"], "station_id": 98832, "street": "Ehrengutstr. 5a", "total_kw": 22.0, "town": "M\u00fcnchen"}, "geometry": {"type": "Point", "coordinates": [11.5593068, 48.1213034]}}, {"id": "111", "type": "Feature", "properties": {"capacity": 2.0, "data_source": "BNA,OSM", "dc_support": true, "max_kw": 50.0, "operator": "SWM Versorgungs GmbH", "socket_type_list": ["DC Kupplung Combo", " DC CHAdeMO", "AC Steckdose Typ 2"], "station_id": 98834, "street": "Kirchseeoner Str. 5", "total_kw": 50.0, "town": "M\u00fcnchen"}, "geometry": {"type": "Point", "coordinates": [11.6172025, 48.1155555]}}, {"id": "112", "type": "Feature", "properties": {"capacity": 4.0, "data_source": "BNA,OCM", "dc_support": false, "max_kw": 11.0, "operator": "APCOA PARKING Deutschland GmbH", "socket_type_list": ["AC Steckdose Typ 2", "AC Steckdose Typ 2", "AC Steckdose Typ 2", "AC Steckdose Typ 2"], "station_id": 98835, "street": "Willy-Brand-Platz 5", "total_kw": 11.0, "town": "M\u00fcnchen"}, "geometry": {"type": "Point", "coordinates": [11.6985726, 48.1346272]}}, {"id": "113", "type": "Feature", "properties": {"capacity": 1.0, "data_source": "BNA,OCM", "dc_support": false, "max_kw": 11.0, "operator": "E.ON Drive GmbH", "socket_type_list": ["AC Steckdose Typ 2"], "station_id": 98836, "street": "Willy-Brandt-Platz  5", "total_kw": 11.0, "town": "M\u00fcnchen"}, "geometry": {"type": "Point", "coordinates": [11.69269, 48.13223]}}, {"id": "114", "type": "Feature", "properties": {"capacity": 2.0, "data_source": "BNA,OSM", "dc_support": true, "max_kw": 50.0, "operator": "SWM Versorgungs GmbH", "socket_type_list": ["DC Kupplung Combo", " DC CHAdeMO", "AC Steckdose Typ 2"], "station_id": 98837, "street": "Haager Str. 10", "total_kw": 50.0, "town": "M\u00fcnchen"}, "geometry": {"type": "Point", "coordinates": [11.6083995, 48.1265628]}}, {"id": "115", "type": "Feature", "properties": {"capacity": 2.0, "data_source": "BNA,OCM,OSM", "dc_support": false, "max_kw": 22.0, "operator": "SWM Versorgungs GmbH", "socket_type_list": ["AC Steckdose Typ 2", " AC Schuko", "AC Steckdose Typ 2", " AC Schuko"], "station_id": 98838, "street": "M\u00fchldorfer Str. 6", "total_kw": 22.0, "town": "M\u00fcnchen"}, "geometry": {"type": "Point", "coordinates": [11.6104886, 48.1284088]}}, {"id": "116", "type": "Feature", "properties": {"capacity": 2.0, "data_source": "BNA,OCM,OSM", "dc_support": false, "max_kw": 22.0, "operator": "SWM Versorgungs GmbH", "socket_type_list": ["AC Steckdose Typ 2", "AC Steckdose Typ 2"], "station_id": 98839, "street": "Steinstra\u00dfe 72", "total_kw": 22.0, "town": "M\u00fcnchen"}, "geometry": {"type": "Point", "coordinates": [11.5941001, 48.1290694]}}, {"id": "117", "type": "Feature", "properties": {"capacity": 2.0, "data_source": "BNA,OSM", "dc_support": false, "max_kw": 22.0, "operator": "SWM Versorgungs GmbH", "socket_type_list": ["AC Steckdose Typ 2", "AC Steckdose Typ 2"], "station_id": 98840, "street": "Herzogstandstr. 6a", "total_kw": 22.0, "town": "M\u00fcnchen"}, "geometry": {"type": "Point", "coordinates": [11.5831571, 48.1156301]}}, {"id": "118", "type": "Feature", "properties": {"capacity": 2.0, "data_source": "BNA,OCM,OSM", "dc_support": false, "max_kw": 22.0, "operator": "SWM Versorgungs GmbH", "socket_type_list": ["AC Steckdose Typ 2", "AC Steckdose Typ 2"], "station_id": 98841, "street": "Grasserstr. 6a", "total_kw": 22.0, "town": "M\u00fcnchen"}, "geometry": {"type": "Point", "coordinates": [11.5481789, 48.1402285]}}, {"id": "119", "type": "Feature", "properties": {"capacity": 2.0, "data_source": "BNA,OCM,OSM", "dc_support": false, "max_kw": 22.0, "operator": "SWM Versorgungs GmbH", "socket_type_list": ["AC Steckdose Typ 2", "AC Steckdose Typ 2"], "station_id": 98842, "street": "Klosterhofstr. 6a", "total_kw": 22.0, "town": "M\u00fcnchen"}, "geometry": {"type": "Point", "coordinates": [11.5709593, 48.1337421]}}, {"id": "120", "type": "Feature", "properties": {"capacity": 2.0, "data_source": "BNA,OCM,OSM", "dc_support": false, "max_kw": 22.0, "operator": "SWM Versorgungs GmbH", "socket_type_list": ["AC Steckdose Typ 2", "AC Steckdose Typ 2"], "station_id": 98843, "street": "Ga\u00dfnerstr. 6a", "total_kw": 22.0, "town": "M\u00fcnchen"}, "geometry": {"type": "Point", "coordinates": [11.5090149, 48.1545901]}}, {"id": "121", "type": "Feature", "properties": {"capacity": 2.0, "data_source": "BNA,OCM,OSM", "dc_support": false, "max_kw": 22.0, "operator": "SWM Versorgungs GmbH", "socket_type_list": ["AC Steckdose Typ 2", "AC Steckdose Typ 2"], "station_id": 98844, "street": "Tegelbergstr. 6a", "total_kw": 22.0, "town": "M\u00fcnchen"}, "geometry": {"type": "Point", "coordinates": [11.5706807, 48.0926469]}}, {"id": "122", "type": "Feature", "properties": {"capacity": 2.0, "data_source": "BNA,OCM,OSM", "dc_support": false, "max_kw": 22.0, "operator": "SWM Versorgungs GmbH", "socket_type_list": ["AC Steckdose Typ 2", "AC Steckdose Typ 2"], "station_id": 98845, "street": "Arcostr. gg. 6a", "total_kw": 22.0, "town": "M\u00fcnchen"}, "geometry": {"type": "Point", "coordinates": [11.5659715, 48.1421462]}}, {"id": "123", "type": "Feature", "properties": {"capacity": 2.0, "data_source": "BNA,OCM,OSM", "dc_support": false, "max_kw": 22.0, "operator": "SWM Versorgungs GmbH", "socket_type_list": ["AC Steckdose Typ 2", "AC Steckdose Typ 2"], "station_id": 98846, "street": "Gertrud-Grunow-Str. 7", "total_kw": 22.0, "town": "M\u00fcnchen"}, "geometry": {"type": "Point", "coordinates": [11.5967908, 48.1838804]}}, {"id": "124", "type": "Feature", "properties": {"capacity": 2.0, "data_source": "BNA,OSM", "dc_support": false, "max_kw": 22.0, "operator": "SWM Versorgungs GmbH", "socket_type_list": ["AC Steckdose Typ 2", "AC Steckdose Typ 2"], "station_id": 98847, "street": "Rotwandstr. 6", "total_kw": 22.0, "town": "M\u00fcnchen"}, "geometry": {"type": "Point", "coordinates": [11.5871438, 48.1148839]}}, {"id": "125", "type": "Feature", "properties": {"capacity": 2.0, "data_source": "BNA,OCM,OSM", "dc_support": false, "max_kw": 22.0, "operator": "SWM Versorgungs GmbH", "socket_type_list": ["AC Steckdose Typ 2", "AC Steckdose Typ 2"], "station_id": 98848, "street": "Ickstattstr. 6a", "total_kw": 22.0, "town": "M\u00fcnchen"}, "geometry": {"type": "Point", "coordinates": [11.5714505, 48.1292458]}}, {"id": "126", "type": "Feature", "properties": {"capacity": 2.0, "data_source": "BNA,OCM,OSM", "dc_support": true, "max_kw": 50.0, "operator": "E.ON Drive GmbH", "socket_type_list": ["DC Kupplung Combo", "DC Kupplung Combo"], "station_id": 98849, "street": "Bremer Stra\u00dfe 6", "total_kw": 50.0, "town": "M\u00fcnchen"}, "geometry": {"type": "Point", "coordinates": [11.5703941, 48.1892713]}}, {"id": "127", "type": "Feature", "properties": {"capacity": 2.0, "data_source": "BNA,OCM,OSM", "dc_support": false, "max_kw": 22.0, "operator": "SWM Versorgungs GmbH", "socket_type_list": ["AC Steckdose Typ 2", "AC Steckdose Typ 2"], "station_id": 98850, "street": "Nestroystr. 7a", "total_kw": 22.0, "town": "M\u00fcnchen"}, "geometry": {"type": "Point", "coordinates": [11.5346583, 48.1213192]}}, {"id": "128", "type": "Feature", "properties": {"capacity": 2.0, "data_source": "BNA,OCM,OSM", "dc_support": false, "max_kw": 22.0, "operator": "SWM Versorgungs GmbH", "socket_type_list": ["AC Steckdose Typ 2", "AC Steckdose Typ 2"], "station_id": 98851, "street": "Rumfordstr. 7a", "total_kw": 22.0, "town": "M\u00fcnchen"}, "geometry": {"type": "Point", "coordinates": [11.5764079, 48.1333581]}}, {"id": "129", "type": "Feature", "properties": {"capacity": 2.0, "data_source": "BNA,OCM,OSM", "dc_support": false, "max_kw": 22.0, "operator": "SWM Versorgungs GmbH", "socket_type_list": ["AC Steckdose Typ 2", "AC Steckdose Typ 2"], "station_id": 98852, "street": "Bechsteinstr. 7", "total_kw": 22.0, "town": "M\u00fcnchen"}, "geometry": {"type": "Point", "coordinates": [11.5653699, 48.1685657]}}, {"id": "130", "type": "Feature", "properties": {"capacity": 2.0, "data_source": "BNA,OSM", "dc_support": false, "max_kw": 22.0, "operator": "SWM Versorgungs GmbH", "socket_type_list": ["AC Steckdose Typ 2", "AC Steckdose Typ 2"], "station_id": 98853, "street": "Hopfenstr. 7a", "total_kw": 22.0, "town": "M\u00fcnchen"}, "geometry": {"type": "Point", "coordinates": [11.5545816, 48.1436916]}}, {"id": "131", "type": "Feature", "properties": {"capacity": 2.0, "data_source": "BNA,OSM", "dc_support": false, "max_kw": 22.0, "operator": "SWM Versorgungs GmbH", "socket_type_list": ["AC Steckdose Typ 2", "AC Steckdose Typ 2"], "station_id": 98854, "street": "Eichendorffpl. 7a", "total_kw": 22.0, "town": "M\u00fcnchen"}, "geometry": {"type": "Point", "coordinates": [11.5236566, 48.1128062]}}, {"id": "132", "type": "Feature", "properties": {"capacity": 2.0, "data_source": "BNA,OSM", "dc_support": false, "max_kw": 22.0, "operator": "SWM Versorgungs GmbH", "socket_type_list": ["AC Steckdose Typ 2", "AC Steckdose Typ 2"], "station_id": 98855, "street": "Gerhardstr. 7", "total_kw": 22.0, "town": "M\u00fcnchen"}, "geometry": {"type": "Point", "coordinates": [11.5688857, 48.1160591]}}, {"id": "133", "type": "Feature", "properties": {"capacity": 2.0, "data_source": "BNA,OCM,OSM", "dc_support": false, "max_kw": 22.0, "operator": "SWM Versorgungs GmbH", "socket_type_list": ["AC Steckdose Typ 2", "AC Steckdose Typ 2"], "station_id": 98856, "street": "Machtlfingerstr. 7a", "total_kw": 22.0, "town": "M\u00fcnchen"}, "geometry": {"type": "Point", "coordinates": [11.5139188, 48.0964845]}}, {"id": "134", "type": "Feature", "properties": {"capacity": 2.0, "data_source": "BNA,OCM,OSM", "dc_support": false, "max_kw": 22.0, "operator": "SWM Versorgungs GmbH", "socket_type_list": ["AC Steckdose Typ 2", "AC Steckdose Typ 2"], "station_id": 98857, "street": "Beetzstr. 7", "total_kw": 22.0, "town": "M\u00fcnchen"}, "geometry": {"type": "Point", "coordinates": [11.6090201, 48.141579]}}, {"id": "135", "type": "Feature", "properties": {"capacity": 2.0, "data_source": "BNA", "dc_support": false, "max_kw": 22.0, "operator": "SWM Versorgungs GmbH", "socket_type_list": ["AC Steckdose Typ 2", "AC Steckdose Typ 2"], "station_id": 98858, "street": "Salbauerstr. 7a", "total_kw": 22.0, "town": "M\u00fcnchen"}, "geometry": {"type": "Point", "coordinates": [11.459038, 48.140167]}}, {"id": "136", "type": "Feature", "properties": {"capacity": 2.0, "data_source": "BNA,OCM", "dc_support": false, "max_kw": 11.0, "operator": "ChargeOne", "socket_type_list": ["AC Steckdose Typ 2", "AC Steckdose Typ 2"], "station_id": 98859, "street": "Mittererstra\u00dfe 7", "total_kw": 22.0, "town": "M\u00fcnchen"}, "geometry": {"type": "Point", "coordinates": [11.557595, 48.13796]}}, {"id": "137", "type": "Feature", "properties": {"capacity": 2.0, "data_source": "BNA,OCM,OSM", "dc_support": true, "max_kw": 50.0, "operator": "deer GmbH", "socket_type_list": ["AC Steckdose Typ 2", "DC Kupplung Combo", " DC CHAdeMO"], "station_id": 98860, "street": "Am Ausbesserungswerk 8", "total_kw": 72.0, "town": "M\u00fcnchen"}, "geometry": {"type": "Point", "coordinates": [11.6060216, 48.197817]}}, {"id": "138", "type": "Feature", "properties": {"capacity": 2.0, "data_source": "BNA,OCM,OSM", "dc_support": false, "max_kw": 22.0, "operator": "SWM Versorgungs GmbH", "socket_type_list": ["AC Steckdose Typ 2", "AC Steckdose Typ 2"], "station_id": 98861, "street": "Kidlerpl. 8a", "total_kw": 22.0, "town": "M\u00fcnchen"}, "geometry": {"type": "Point", "coordinates": [11.5414735, 48.1169567]}}, {"id": "139", "type": "Feature", "properties": {"capacity": 2.0, "data_source": "BNA,OCM,OSM", "dc_support": false, "max_kw": 22.0, "operator": "SWM Versorgungs GmbH", "socket_type_list": ["AC Steckdose Typ 2", "AC Steckdose Typ 2"], "station_id": 98862, "street": "Bernhard-Wicki-Str. 8a", "total_kw": 22.0, "town": "M\u00fcnchen"}, "geometry": {"type": "Point", "coordinates": [11.5476696, 48.1427057]}}, {"id": "140", "type": "Feature", "properties": {"capacity": 2.0, "data_source": "BNA,OCM,OSM", "dc_support": false, "max_kw": 22.0, "operator": "SWM Versorgungs GmbH", "socket_type_list": ["AC Steckdose Typ 2", "AC Steckdose Typ 2"], "station_id": 98863, "street": "Maria-Wimmer-Str. 8a", "total_kw": 22.0, "town": "M\u00fcnchen"}, "geometry": {"type": "Point", "coordinates": [11.6609171, 48.0851609]}}, {"id": "141", "type": "Feature", "properties": {"capacity": 2.0, "data_source": "BNA,OSM", "dc_support": false, "max_kw": 22.0, "operator": "SWM Versorgungs GmbH", "socket_type_list": ["AC Steckdose Typ 2", "AC Steckdose Typ 2"], "station_id": 98864, "street": "Agnes-Bernauer-Pl. 8a", "total_kw": 22.0, "town": "M\u00fcnchen"}, "geometry": {"type": "Point", "coordinates": [11.4965772, 48.1401936]}}, {"id": "142", "type": "Feature", "properties": {"capacity": 2.0, "data_source": "BNA", "dc_support": false, "max_kw": 11.0, "operator": "Classik Hotel Collection GmbH", "socket_type_list": ["AC Steckdose Typ 2", "AC Steckdose Typ 2"], "station_id": 98865, "street": "Martin-Empl-Ring 8", "total_kw": 22.0, "town": "M\u00fcnchen"}, "geometry": {"type": "Point", "coordinates": [11.681610244219, 48.1395217700233]}}, {"id": "143", "type": "Feature", "properties": {"capacity": 2.0, "data_source": "BNA,OCM,OSM", "dc_support": false, "max_kw": 22.0, "operator": "SWM Versorgungs GmbH", "socket_type_list": ["AC Steckdose Typ 2", "AC Steckdose Typ 2"], "station_id": 98866, "street": "Griegstr. 9a", "total_kw": 22.0, "town": "M\u00fcnchen"}, "geometry": {"type": "Point", "coordinates": [11.5821641, 48.1821228]}}, {"id": "144", "type": "Feature", "properties": {"capacity": 2.0, "data_source": "BNA,OSM", "dc_support": false, "max_kw": 22.0, "operator": "SWM Versorgungs GmbH", "socket_type_list": ["AC Steckdose Typ 2", "AC Steckdose Typ 2"], "station_id": 98867, "street": "Maillingerstr. 9", "total_kw": 22.0, "town": "M\u00fcnchen"}, "geometry": {"type": "Point", "coordinates": [11.5457867, 48.1489105]}}, {"id": "145", "type": "Feature", "properties": {"capacity": 2.0, "data_source": "BNA,OCM,OSM", "dc_support": false, "max_kw": 22.0, "operator": "SWM Versorgungs GmbH", "socket_type_list": ["AC Steckdose Typ 2", "AC Steckdose Typ 2"], "station_id": 98868, "street": "Lerchenfeldstr. 9a", "total_kw": 22.0, "town": "M\u00fcnchen"}, "geometry": {"type": "Point", "coordinates": [11.5929005, 48.1459655]}}, {"id": "146", "type": "Feature", "properties": {"capacity": 2.0, "data_source": "BNA,OSM", "dc_support": false, "max_kw": 22.0, "operator": "SWM Versorgungs GmbH", "socket_type_list": ["AC Steckdose Typ 2", "AC Steckdose Typ 2"], "station_id": 98869, "street": "Jakob-Kaiser-Str. 9", "total_kw": 22.0, "town": "M\u00fcnchen"}, "geometry": {"type": "Point", "coordinates": [11.6403629, 48.1039438]}}, {"id": "147", "type": "Feature", "properties": {"capacity": 3.0, "data_source": "BNA,OCM,OSM", "dc_support": true, "max_kw": 150.0, "operator": "Comfort Charge", "socket_type_list": ["DC Kupplung Combo", " DC CHAdeMO", "AC Steckdose Typ 2", "AC Kupplung Typ 2"], "station_id": 98870, "street": "Spiridon-Louis-Ring 9", "total_kw": 150.0, "town": "M\u00fcnchen"}, "geometry": {"type": "Point", "coordinates": [11.5533909, 48.1749496]}}, {"id": "148", "type": "Feature", "properties": {"capacity": 2.0, "data_source": "BNA,OCM,OSM", "dc_support": false, "max_kw": 22.0, "operator": "SWM Versorgungs GmbH", "socket_type_list": ["AC Steckdose Typ 2", "AC Steckdose Typ 2"], "station_id": 98871, "street": "Prinzregentenpl. 10a", "total_kw": 22.0, "town": "M\u00fcnchen"}, "geometry": {"type": "Point", "coordinates": [11.6046102, 48.1393963]}}, {"id": "149", "type": "Feature", "properties": {"capacity": 2.0, "data_source": "BNA,OSM", "dc_support": false, "max_kw": 22.0, "operator": "SWM Versorgungs GmbH", "socket_type_list": ["AC Steckdose Typ 2", "AC Steckdose Typ 2"], "station_id": 98872, "street": "Schellingstra\u00dfe 10", "total_kw": 22.0, "town": "M\u00fcnchen"}, "geometry": {"type": "Point", "coordinates": [11.5787827, 48.1495042]}}, {"id": "150", "type": "Feature", "properties": {"capacity": 2.0, "data_source": "BNA,OCM,OSM", "dc_support": false, "max_kw": 22.0, "operator": "SWM Versorgungs GmbH", "socket_type_list": ["AC Steckdose Typ 2", "AC Steckdose Typ 2"], "station_id": 98873, "street": "Hans-Fischer-Str. 10a", "total_kw": 22.0, "town": "M\u00fcnchen"}, "geometry": {"type": "Point", "coordinates": [11.5439531, 48.1279982]}}, {"id": "151", "type": "Feature", "properties": {"capacity": 2.0, "data_source": "BNA,OSM", "dc_support": false, "max_kw": 22.0, "operator": "SWM Versorgungs GmbH", "socket_type_list": ["AC Steckdose Typ 2", "AC Steckdose Typ 2"], "station_id": 98874, "street": "Reisingerstr. 10a", "total_kw": 22.0, "town": "M\u00fcnchen"}, "geometry": {"type": "Point", "coordinates": [11.5650075, 48.130904]}}, {"id": "152", "type": "Feature", "properties": {"capacity": 4.0, "data_source": "BNA", "dc_support": false, "max_kw": 22.0, "operator": "Park One GmbH", "socket_type_list": ["AC Steckdose Typ 2", "AC Steckdose Typ 2", "AC Steckdose Typ 2", "AC Steckdose Typ 2"], "station_id": 98875, "street": "Hanne-Hiob-Stra\u00dfe 10", "total_kw": 22.0, "town": "M\u00fcnchen"}, "geometry": {"type": "Point", "coordinates": [11.6119, 48.125082]}}, {"id": "153", "type": "Feature", "properties": {"capacity": 2.0, "data_source": "BNA", "dc_support": true, "max_kw": 250.0, "operator": "EnBW mobility+ AG und Co.KG ", "socket_type_list": ["DC Kupplung Combo", "DC Kupplung Combo", " DC CHAdeMO"], "station_id": 98876, "street": "Cosimastr. 10", "total_kw": 250.0, "town": "M\u00fcnchen"}, "geometry": {"type": "Point", "coordinates": [11.630057, 48.155556]}}, {"id": "154", "type": "Feature", "properties": {"capacity": 2.0, "data_source": "BNA,OCM,OSM", "dc_support": false, "max_kw": 22.0, "operator": "SWM Versorgungs GmbH", "socket_type_list": ["AC Steckdose Typ 2", "AC Steckdose Typ 2"], "station_id": 98877, "street": "Lindwurmstra\u00dfe 11", "total_kw": 22.0, "town": "M\u00fcnchen"}, "geometry": {"type": "Point", "coordinates": [11.5646533, 48.1324237]}}, {"id": "155", "type": "Feature", "properties": {"capacity": 2.0, "data_source": "BNA,OCM,OSM", "dc_support": false, "max_kw": 22.0, "operator": "SWM Versorgungs GmbH", "socket_type_list": ["AC Steckdose Typ 2", "AC Steckdose Typ 2"], "station_id": 98878, "street": "Friedrichshafener Str. 11", "total_kw": 22.0, "town": "M\u00fcnchen"}, "geometry": {"type": "Point", "coordinates": [11.4420599, 48.1480361]}}, {"id": "156", "type": "Feature", "properties": {"capacity": 2.0, "data_source": "BNA,OCM,OSM", "dc_support": false, "max_kw": 22.0, "operator": "SWM Versorgungs GmbH", "socket_type_list": ["AC Steckdose Typ 2", "AC Steckdose Typ 2"], "station_id": 98879, "street": "Landwehrstr. 11a", "total_kw": 22.0, "town": "M\u00fcnchen"}, "geometry": {"type": "Point", "coordinates": [11.5629948, 48.1363051]}}, {"id": "157", "type": "Feature", "properties": {"capacity": 2.0, "data_source": "BNA,OCM,OSM", "dc_support": false, "max_kw": 22.0, "operator": "SWM Versorgungs GmbH", "socket_type_list": ["AC Steckdose Typ 2", "AC Steckdose Typ 2"], "station_id": 98880, "street": "Lindenschmitstr. 11a", "total_kw": 22.0, "town": "M\u00fcnchen"}, "geometry": {"type": "Point", "coordinates": [11.5449166, 48.1183196]}}, {"id": "158", "type": "Feature", "properties": {"capacity": 2.0, "data_source": "BNA,OCM,OSM", "dc_support": false, "max_kw": 22.0, "operator": "SWM Versorgungs GmbH", "socket_type_list": ["AC Steckdose Typ 2", "AC Steckdose Typ 2"], "station_id": 98881, "street": "Meraner Str. 11", "total_kw": 22.0, "town": "M\u00fcnchen"}, "geometry": {"type": "Point", "coordinates": [11.5701973, 48.1019273]}}, {"id": "159", "type": "Feature", "properties": {"capacity": 2.0, "data_source": "BNA,OCM,OSM", "dc_support": false, "max_kw": 22.0, "operator": "SWM Versorgungs GmbH", "socket_type_list": ["AC Steckdose Typ 2", "AC Steckdose Typ 2"], "station_id": 98882, "street": "Aurbacherstr. 13", "total_kw": 22.0, "town": "M\u00fcnchen"}, "geometry": {"type": "Point", "coordinates": [11.5903169, 48.1224924]}}, {"id": "160", "type": "Feature", "properties": {"capacity": 2.0, "data_source": "BNA,OCM,OSM", "dc_support": false, "max_kw": 22.0, "operator": "SWM Versorgungs GmbH", "socket_type_list": ["AC Steckdose Typ 2", "AC Steckdose Typ 2"], "station_id": 98883, "street": "Wirthstr. 11", "total_kw": 22.0, "town": "M\u00fcnchen"}, "geometry": {"type": "Point", "coordinates": [11.5776114, 48.1123636]}}, {"id": "161", "type": "Feature", "properties": {"capacity": 2.0, "data_source": "BNA,OCM,OSM", "dc_support": false, "max_kw": 22.0, "operator": "SWM Versorgungs GmbH", "socket_type_list": ["AC Steckdose Typ 2", "AC Steckdose Typ 2"], "station_id": 98884, "street": "Halskestr. 11a", "total_kw": 22.0, "town": "M\u00fcnchen"}, "geometry": {"type": "Point", "coordinates": [11.5202782, 48.1005013]}}, {"id": "162", "type": "Feature", "properties": {"capacity": 2.0, "data_source": "BNA", "dc_support": false, "max_kw": 22.0, "operator": "SWM Versorgungs GmbH", "socket_type_list": ["AC Steckdose Typ 2", "AC Steckdose Typ 2"], "station_id": 98885, "street": "Kopenhagenstr. 11", "total_kw": 22.0, "town": "M\u00fcnchen"}, "geometry": {"type": "Point", "coordinates": [11.685149, 48.129485]}}, {"id": "163", "type": "Feature", "properties": {"capacity": 2.0, "data_source": "BNA", "dc_support": true, "max_kw": 50.0, "operator": "SWM Versorgungs GmbH", "socket_type_list": ["DC Kupplung Combo", " DC CHAdeMO", "AC Steckdose Typ 2"], "station_id": 98886, "street": "Oslostr. 11", "total_kw": 50.0, "town": "M\u00fcnchen"}, "geometry": {"type": "Point", "coordinates": [11.689532, 48.131507]}}, {"id": "164", "type": "Feature", "properties": {"capacity": 2.0, "data_source": "BNA,OCM,OSM", "dc_support": false, "max_kw": 22.0, "operator": "SWM Versorgungs GmbH", "socket_type_list": ["AC Steckdose Typ 2", "AC Steckdose Typ 2"], "station_id": 98887, "street": "Clemensstr. 12a", "total_kw": 22.0, "town": "M\u00fcnchen"}, "geometry": {"type": "Point", "coordinates": [11.583745, 48.1635543]}}, {"id": "165", "type": "Feature", "properties": {"capacity": 2.0, "data_source": "BNA,OCM,OSM", "dc_support": false, "max_kw": 22.0, "operator": "SWM Versorgungs GmbH", "socket_type_list": ["AC Steckdose Typ 2", "AC Steckdose Typ 2"], "station_id": 98888, "street": "Floriansm\u00fchlstr. 13a", "total_kw": 22.0, "town": "M\u00fcnchen"}, "geometry": {"type": "Point", "coordinates": [11.6204924, 48.1916945]}}, {"id": "166", "type": "Feature", "properties": {"capacity": 2.0, "data_source": "BNA,OCM,OSM", "dc_support": false, "max_kw": 22.0, "operator": "SWM Versorgungs GmbH", "socket_type_list": ["AC Steckdose Typ 2", "AC Steckdose Typ 2"], "station_id": 98889, "street": "Artilleriestr. 13a", "total_kw": 22.0, "town": "M\u00fcnchen"}, "geometry": {"type": "Point", "coordinates": [11.5395268, 48.1569815]}}, {"id": "167", "type": "Feature", "properties": {"capacity": 2.0, "data_source": "BNA,OCM,OSM", "dc_support": false, "max_kw": 22.0, "operator": "SWM Versorgungs GmbH", "socket_type_list": ["AC Steckdose Typ 2", "AC Steckdose Typ 2"], "station_id": 98890, "street": "Maximilianspl. 13a", "total_kw": 22.0, "town": "M\u00fcnchen"}, "geometry": {"type": "Point", "coordinates": [11.573156, 48.1420984]}}, {"id": "168", "type": "Feature", "properties": {"capacity": 2.0, "data_source": "BNA,OCM,OSM", "dc_support": false, "max_kw": 22.0, "operator": "SWM Versorgungs GmbH", "socket_type_list": ["AC Steckdose Typ 2", "AC Steckdose Typ 2"], "station_id": 98891, "street": "Mariahilfpl. 13a", "total_kw": 22.0, "town": "M\u00fcnchen"}, "geometry": {"type": "Point", "coordinates": [11.5842335, 48.1252707]}}, {"id": "169", "type": "Feature", "properties": {"capacity": 2.0, "data_source": "BNA,OSM", "dc_support": false, "max_kw": 22.0, "operator": "SWM Versorgungs GmbH", "socket_type_list": ["AC Steckdose Typ 2", "AC Steckdose Typ 2"], "station_id": 98892, "street": "Cimbernstr. 15", "total_kw": 22.0, "town": "M\u00fcnchen"}, "geometry": {"type": "Point", "coordinates": [11.5155178, 48.1106057]}}, {"id": "170", "type": "Feature", "properties": {"capacity": 2.0, "data_source": "BNA,OSM", "dc_support": false, "max_kw": 22.0, "operator": "SWM Versorgungs GmbH", "socket_type_list": ["AC Steckdose Typ 2", "AC Steckdose Typ 2"], "station_id": 98893, "street": "Barthstr. 15", "total_kw": 22.0, "town": "M\u00fcnchen"}, "geometry": {"type": "Point", "coordinates": [11.5282427, 48.1393564]}}, {"id": "171", "type": "Feature", "properties": {"capacity": 2.0, "data_source": "BNA,OCM,OSM", "dc_support": false, "max_kw": 22.0, "operator": "Parkwerk GmbH", "socket_type_list": ["AC Kupplung Typ 2", "AC Kupplung Typ 2"], "station_id": 98894, "street": "Friedenstr.  14", "total_kw": 22.0, "town": "M\u00fcnchen"}, "geometry": {"type": "Point", "coordinates": [11.6048627, 48.1253551]}}, {"id": "172", "type": "Feature", "properties": {"capacity": 2.0, "data_source": "BNA", "dc_support": false, "max_kw": 11.0, "operator": "Bavaria Parkgaragen GmbH", "socket_type_list": ["AC Steckdose Typ 2", "AC Steckdose Typ 2"], "station_id": 98895, "street": "Rosenkavalierplatz 14", "total_kw": 11.0, "town": "M\u00fcnchen"}, "geometry": {"type": "Point", "coordinates": [11.6196797, 48.1517703]}}, {"id": "173", "type": "Feature", "properties": {"capacity": 2.0, "data_source": "BNA,OCM,OSM", "dc_support": true, "max_kw": 50.0, "operator": "SWM Versorgungs GmbH", "socket_type_list": ["DC Kupplung Combo", " DC CHAdeMO", "AC Kupplung Typ 2"], "station_id": 98896, "street": "Englschalkinger Str. 14", "total_kw": 50.0, "town": "M\u00fcnchen"}, "geometry": {"type": "Point", "coordinates": [11.6201464, 48.1535344]}}, {"id": "174", "type": "Feature", "properties": {"capacity": 2.0, "data_source": "BNA,OCM,OSM", "dc_support": false, "max_kw": 22.0, "operator": "SWM Versorgungs GmbH", "socket_type_list": ["AC Steckdose Typ 2", "AC Steckdose Typ 2"], "station_id": 98897, "street": "Georg-Kerschensteiner-Str. 14", "total_kw": 22.0, "town": "M\u00fcnchen"}, "geometry": {"type": "Point", "coordinates": [11.6970268, 48.1312732]}}, {"id": "175", "type": "Feature", "properties": {"capacity": 2.0, "data_source": "BNA,OCM,OSM", "dc_support": false, "max_kw": 22.0, "operator": "SWM Versorgungs GmbH", "socket_type_list": ["AC Steckdose Typ 2", "AC Steckdose Typ 2"], "station_id": 98898, "street": "Max-Bill-Str. 16", "total_kw": 22.0, "town": "M\u00fcnchen"}, "geometry": {"type": "Point", "coordinates": [11.5935978, 48.1869148]}}, {"id": "176", "type": "Feature", "properties": {"capacity": 2.0, "data_source": "BNA,OCM,OSM", "dc_support": false, "max_kw": 22.0, "operator": "SWM Versorgungs GmbH", "socket_type_list": ["AC Steckdose Typ 2", "AC Steckdose Typ 2"], "station_id": 98899, "street": "Am Glockenbach 14", "total_kw": 22.0, "town": "M\u00fcnchen"}, "geometry": {"type": "Point", "coordinates": [11.5668537, 48.1263162]}}, {"id": "177", "type": "Feature", "properties": {"capacity": 2.0, "data_source": "BNA,OCM,OSM", "dc_support": false, "max_kw": 22.0, "operator": "SWM Versorgungs GmbH", "socket_type_list": ["AC Steckdose Typ 2", "AC Steckdose Typ 2"], "station_id": 98900, "street": "Schmalkaldener Str. 14a", "total_kw": 22.0, "town": "M\u00fcnchen"}, "geometry": {"type": "Point", "coordinates": [11.5781741, 48.1869373]}}, {"id": "178", "type": "Feature", "properties": {"capacity": 2.0, "data_source": "BNA,OCM,OSM", "dc_support": false, "max_kw": 22.0, "operator": "SWM Versorgungs GmbH", "socket_type_list": ["AC Steckdose Typ 2", "AC Steckdose Typ 2"], "station_id": 98901, "street": "Albrechtstr. 14a", "total_kw": 22.0, "town": "M\u00fcnchen"}, "geometry": {"type": "Point", "coordinates": [11.5414223, 48.1541323]}}, {"id": "179", "type": "Feature", "properties": {"capacity": 2.0, "data_source": "BNA,OSM", "dc_support": false, "max_kw": 22.0, "operator": "SWM Versorgungs GmbH", "socket_type_list": ["AC Steckdose Typ 2", "AC Steckdose Typ 2"], "station_id": 98902, "street": "Lierstr. 14a", "total_kw": 22.0, "town": "M\u00fcnchen"}, "geometry": {"type": "Point", "coordinates": [11.5117257, 48.1529393]}}, {"id": "180", "type": "Feature", "properties": {"capacity": 2.0, "data_source": "BNA,OCM,OSM", "dc_support": false, "max_kw": 22.0, "operator": "SWM Versorgungs GmbH", "socket_type_list": ["AC Steckdose Typ 2", "AC Steckdose Typ 2"], "station_id": 98903, "street": "Widenmayerstr. 15", "total_kw": 22.0, "town": "M\u00fcnchen"}, "geometry": {"type": "Point", "coordinates": [11.5935001, 48.1400857]}}, {"id": "181", "type": "Feature", "properties": {"capacity": 2.0, "data_source": "BNA,OCM,OSM", "dc_support": false, "max_kw": 22.0, "operator": "SWM Versorgungs GmbH", "socket_type_list": ["AC Steckdose Typ 2", "AC Steckdose Typ 2"], "station_id": 98904, "street": "Gr\u00fcnecker Str. 14a", "total_kw": 22.0, "town": "M\u00fcnchen"}, "geometry": {"type": "Point", "coordinates": [11.5967579, 48.1794315]}}, {"id": "182", "type": "Feature", "properties": {"capacity": 2.0, "data_source": "BNA", "dc_support": false, "max_kw": 22.0, "operator": "SWM Versorgungs GmbH", "socket_type_list": ["AC Steckdose Typ 2", "AC Steckdose Typ 2"], "station_id": 98905, "street": "Wirthstr. 14", "total_kw": 22.0, "town": "M\u00fcnchen"}, "geometry": {"type": "Point", "coordinates": [11.578649, 48.111577]}}, {"id": "183", "type": "Feature", "properties": {"capacity": 2.0, "data_source": "BNA,OCM,OSM", "dc_support": false, "max_kw": 22.0, "operator": "SWM Versorgungs GmbH", "socket_type_list": ["AC Steckdose Typ 2", "AC Steckdose Typ 2"], "station_id": 98906, "street": "Karl-Weinmair-Str. 14a", "total_kw": 22.0, "town": "M\u00fcnchen"}, "geometry": {"type": "Point", "coordinates": [11.5884739, 48.1795714]}}, {"id": "184", "type": "Feature", "properties": {"capacity": 2.0, "data_source": "BNA,OCM", "dc_support": false, "max_kw": 11.0, "operator": "Bavaria Parkgaragen GmbH", "socket_type_list": ["AC Steckdose Typ 2", "AC Steckdose Typ 2"], "station_id": 98907, "street": "Arabellastr 15", "total_kw": 11.0, "town": "M\u00fcnchen"}, "geometry": {"type": "Point", "coordinates": [11.6197323042, 48.1504613679]}}, {"id": "185", "type": "Feature", "properties": {"capacity": 2.0, "data_source": "BNA,OCM,OSM", "dc_support": false, "max_kw": 22.0, "operator": "SWM Versorgungs GmbH", "socket_type_list": ["AC Steckdose Typ 2", "AC Steckdose Typ 2"], "station_id": 98908, "street": "Kaflerstr. 15a", "total_kw": 22.0, "town": "M\u00fcnchen"}, "geometry": {"type": "Point", "coordinates": [11.4579376, 48.1496652]}}, {"id": "186", "type": "Feature", "properties": {"capacity": 2.0, "data_source": "BNA,OCM,OSM", "dc_support": false, "max_kw": 22.0, "operator": "SWM Versorgungs GmbH", "socket_type_list": ["AC Steckdose Typ 2", "AC Steckdose Typ 2"], "station_id": 98909, "street": "Schlo\u00dfschmidstr. 15a", "total_kw": 22.0, "town": "M\u00fcnchen"}, "geometry": {"type": "Point", "coordinates": [11.5182523, 48.1466104]}}, {"id": "187", "type": "Feature", "properties": {"capacity": 2.0, "data_source": "BNA,OCM,OSM", "dc_support": false, "max_kw": 22.0, "operator": "SWM Versorgungs GmbH", "socket_type_list": ["AC Steckdose Typ 2", "AC Steckdose Typ 2"], "station_id": 98910, "street": "Kolbergerstr. 15a", "total_kw": 22.0, "town": "M\u00fcnchen"}, "geometry": {"type": "Point", "coordinates": [11.6057847, 48.1510174]}}, {"id": "188", "type": "Feature", "properties": {"capacity": 2.0, "data_source": "BNA", "dc_support": false, "max_kw": 22.0, "operator": "Park One GmbH", "socket_type_list": ["AC Steckdose Typ 2", "AC Steckdose Typ 2"], "station_id": 98911, "street": "Rosenheimerstra\u00dfe 15", "total_kw": 22.0, "town": "M\u00fcnchen"}, "geometry": {"type": "Point", "coordinates": [11.592552, 48.12998]}}, {"id": "189", "type": "Feature", "properties": {"capacity": 2.0, "data_source": "BNA,OCM,OSM", "dc_support": true, "max_kw": 50.0, "operator": "Sparda-Bank M\u00fcnchen eG", "socket_type_list": ["AC Kupplung Typ 2", "DC Kupplung Combo", " DC CHAdeMO"], "station_id": 98912, "street": "Arnulfstra\u00dfe 15", "total_kw": 80.0, "town": "M\u00fcnchen"}, "geometry": {"type": "Point", "coordinates": [11.5524821, 48.1421578]}}, {"id": "190", "type": "Feature", "properties": {"capacity": 2.0, "data_source": "BNA,OCM,OSM", "dc_support": false, "max_kw": 22.0, "operator": "SWM Versorgungs GmbH", "socket_type_list": ["AC Steckdose Typ 2", "AC Steckdose Typ 2"], "station_id": 98913, "street": "Maximilianstr. 16a", "total_kw": 22.0, "town": "M\u00fcnchen"}, "geometry": {"type": "Point", "coordinates": [11.580994, 48.1388455]}}, {"id": "191", "type": "Feature", "properties": {"capacity": 2.0, "data_source": "BNA,OSM", "dc_support": false, "max_kw": 22.0, "operator": "SWM Versorgungs GmbH", "socket_type_list": ["AC Steckdose Typ 2", "AC Steckdose Typ 2"], "station_id": 98915, "street": "Centa-Herker-Bg. 17a", "total_kw": 22.0, "town": "M\u00fcnchen"}, "geometry": {"type": "Point", "coordinates": [11.5562668, 48.167265]}}, {"id": "192", "type": "Feature", "properties": {"capacity": 2.0, "data_source": "BNA,OCM,OSM", "dc_support": false, "max_kw": 22.0, "operator": "SWM Versorgungs GmbH", "socket_type_list": ["AC Steckdose Typ 2", "AC Steckdose Typ 2"], "station_id": 98916, "street": "Eisenacher Str. 17a", "total_kw": 22.0, "town": "M\u00fcnchen"}, "geometry": {"type": "Point", "coordinates": [11.5824368, 48.1735542]}}, {"id": "193", "type": "Feature", "properties": {"capacity": 2.0, "data_source": "BNA,OSM", "dc_support": false, "max_kw": 22.0, "operator": "SWM Versorgungs GmbH", "socket_type_list": ["AC Steckdose Typ 2", "AC Steckdose Typ 2"], "station_id": 98917, "street": "Schnorr-von-Carolsfeld-Str. 17", "total_kw": 22.0, "town": "M\u00fcnchen"}, "geometry": {"type": "Point", "coordinates": [11.6467537, 48.1574516]}}, {"id": "194", "type": "Feature", "properties": {"capacity": 1.0, "data_source": "BNA,OCM,OSM", "dc_support": false, "max_kw": 22.0, "operator": "Landratsamt M\u00fcnchen", "socket_type_list": ["AC Steckdose Typ 2"], "station_id": 98918, "street": "Mariahilfplatz 17", "total_kw": 22.0, "town": "M\u00fcnchen"}, "geometry": {"type": "Point", "coordinates": [11.5828928, 48.1243573]}}, {"id": "195", "type": "Feature", "properties": {"capacity": 2.0, "data_source": "BNA,OCM,OSM", "dc_support": false, "max_kw": 22.0, "operator": "SWM Versorgungs GmbH", "socket_type_list": ["AC Steckdose Typ 2", "AC Steckdose Typ 2"], "station_id": 98919, "street": "Trivastr. 20", "total_kw": 22.0, "town": "M\u00fcnchen"}, "geometry": {"type": "Point", "coordinates": [11.5411769, 48.1615395]}}, {"id": "196", "type": "Feature", "properties": {"capacity": 2.0, "data_source": "BNA,OCM,OSM", "dc_support": false, "max_kw": 22.0, "operator": "SWM Versorgungs GmbH", "socket_type_list": ["AC Steckdose Typ 2", "AC Steckdose Typ 2"], "station_id": 98920, "street": "Graf-Lehndorff-Str. 18a", "total_kw": 22.0, "town": "M\u00fcnchen"}, "geometry": {"type": "Point", "coordinates": [11.6775994, 48.1421267]}}, {"id": "197", "type": "Feature", "properties": {"capacity": 2.0, "data_source": "BNA,OCM,OSM", "dc_support": false, "max_kw": 22.0, "operator": "SWM Versorgungs GmbH", "socket_type_list": ["AC Steckdose Typ 2", "AC Steckdose Typ 2"], "station_id": 98921, "street": "Sch\u00f6ttlstr. 18a", "total_kw": 22.0, "town": "M\u00fcnchen"}, "geometry": {"type": "Point", "coordinates": [11.5368383, 48.1091002]}}, {"id": "198", "type": "Feature", "properties": {"capacity": 2.0, "data_source": "BNA,OCM,OSM", "dc_support": false, "max_kw": 22.0, "operator": "SWM Versorgungs GmbH", "socket_type_list": ["AC Steckdose Typ 2", "AC Steckdose Typ 2"], "station_id": 98922, "street": "Lothstr. 18a", "total_kw": 22.0, "town": "M\u00fcnchen"}, "geometry": {"type": "Point", "coordinates": [11.5492909, 48.1516031]}}, {"id": "199", "type": "Feature", "properties": {"capacity": 2.0, "data_source": "BNA,OSM", "dc_support": false, "max_kw": 22.0, "operator": "SWM Versorgungs GmbH", "socket_type_list": ["AC Steckdose Typ 2", "AC Steckdose Typ 2"], "station_id": 98923, "street": "St.-Cajetan-Str. 18", "total_kw": 22.0, "town": "M\u00fcnchen"}, "geometry": {"type": "Point", "coordinates": [11.6010416, 48.1219393]}}, {"id": "200", "type": "Feature", "properties": {"capacity": 2.0, "data_source": "BNA,OSM", "dc_support": false, "max_kw": 22.0, "operator": "SWM Versorgungs GmbH", "socket_type_list": ["AC Steckdose Typ 2", "AC Steckdose Typ 2"], "station_id": 98924, "street": "Birth\u00e4lmer Str. 18a", "total_kw": 22.0, "town": "M\u00fcnchen"}, "geometry": {"type": "Point", "coordinates": [11.6635084, 48.127204]}}, {"id": "201", "type": "Feature", "properties": {"capacity": 2.0, "data_source": "BNA,OCM", "dc_support": false, "max_kw": 22.0, "operator": "SWM Versorgungs GmbH", "socket_type_list": ["AC Steckdose Typ 2", "AC Steckdose Typ 2"], "station_id": 98925, "street": "Prinzenstr. 18a", "total_kw": 22.0, "town": "M\u00fcnchen"}, "geometry": {"type": "Point", "coordinates": [11.52239, 48.157345]}}, {"id": "202", "type": "Feature", "properties": {"capacity": 2.0, "data_source": "BNA", "dc_support": false, "max_kw": 22.0, "operator": "Euromaster", "socket_type_list": ["AC Steckdose Typ 2", "AC Steckdose Typ 2"], "station_id": 98926, "street": "Implerstr. 19", "total_kw": 44.0, "town": "M\u00fcnchen"}, "geometry": {"type": "Point", "coordinates": [11.550118, 48.121908]}}, {"id": "203", "type": "Feature", "properties": {"capacity": 2.0, "data_source": "BNA,OCM,OSM", "dc_support": false, "max_kw": 22.0, "operator": "SWM Versorgungs GmbH", "socket_type_list": ["AC Steckdose Typ 2", "AC Steckdose Typ 2"], "station_id": 98927, "street": "Appenzeller Str. 21", "total_kw": 22.0, "town": "M\u00fcnchen"}, "geometry": {"type": "Point", "coordinates": [11.4795108, 48.0901388]}}, {"id": "204", "type": "Feature", "properties": {"capacity": 2.0, "data_source": "BNA,OCM,OSM", "dc_support": false, "max_kw": 22.0, "operator": "SWM Versorgungs GmbH", "socket_type_list": ["AC Steckdose Typ 2", "AC Steckdose Typ 2"], "station_id": 98928, "street": "Occamstr. 21", "total_kw": 22.0, "town": "M\u00fcnchen"}, "geometry": {"type": "Point", "coordinates": [11.5904193, 48.1631097]}}, {"id": "205", "type": "Feature", "properties": {"capacity": 2.0, "data_source": "BNA,OCM,OSM", "dc_support": false, "max_kw": 22.0, "operator": "SWM Versorgungs GmbH", "socket_type_list": ["AC Steckdose Typ 2", "AC Steckdose Typ 2"], "station_id": 98929, "street": "Els\u00e4sser Str. 19a", "total_kw": 22.0, "town": "M\u00fcnchen"}, "geometry": {"type": "Point", "coordinates": [11.6051624, 48.1305979]}}, {"id": "206", "type": "Feature", "properties": {"capacity": 2.0, "data_source": "BNA,OCM,OSM", "dc_support": false, "max_kw": 22.0, "operator": "SWM Versorgungs GmbH", "socket_type_list": ["AC Steckdose Typ 2", "AC Steckdose Typ 2"], "station_id": 98930, "street": "Seidlstr. 20", "total_kw": 22.0, "town": "M\u00fcnchen"}, "geometry": {"type": "Point", "coordinates": [11.5577649, 48.1446564]}}, {"id": "207", "type": "Feature", "properties": {"capacity": 2.0, "data_source": "BNA,OCM,OSM", "dc_support": false, "max_kw": 22.0, "operator": "SWM Versorgungs GmbH", "socket_type_list": ["AC Steckdose Typ 2", "AC Steckdose Typ 2"], "station_id": 98931, "street": "Knorrstr. 20", "total_kw": 22.0, "town": "M\u00fcnchen"}, "geometry": {"type": "Point", "coordinates": [11.5733282, 48.1801728]}}, {"id": "208", "type": "Feature", "properties": {"capacity": 2.0, "data_source": "BNA,OCM,OSM", "dc_support": false, "max_kw": 22.0, "operator": "SWM Versorgungs GmbH", "socket_type_list": ["AC Steckdose Typ 2", "AC Steckdose Typ 2"], "station_id": 98932, "street": "Robert-Heger-Str. 22", "total_kw": 22.0, "town": "M\u00fcnchen"}, "geometry": {"type": "Point", "coordinates": [11.6426231, 48.1585632]}}, {"id": "209", "type": "Feature", "properties": {"capacity": 2.0, "data_source": "BNA,OCM,OSM", "dc_support": false, "max_kw": 22.0, "operator": "SWM Versorgungs GmbH", "socket_type_list": ["AC Steckdose Typ 2", "AC Steckdose Typ 2"], "station_id": 98933, "street": "Thomas-Dehler-Str. 20a", "total_kw": 22.0, "town": "M\u00fcnchen"}, "geometry": {"type": "Point", "coordinates": [11.6447603, 48.0984418]}}, {"id": "210", "type": "Feature", "properties": {"capacity": 2.0, "data_source": "BNA,OCM,OSM", "dc_support": false, "max_kw": 22.0, "operator": "SWM Versorgungs GmbH", "socket_type_list": ["AC Steckdose Typ 2", "AC Steckdose Typ 2"], "station_id": 98934, "street": "Herzogspitalstr. 22", "total_kw": 22.0, "town": "M\u00fcnchen"}, "geometry": {"type": "Point", "coordinates": [11.5668608, 48.137958]}}, {"id": "211", "type": "Feature", "properties": {"capacity": 2.0, "data_source": "BNA,OCM,OSM", "dc_support": false, "max_kw": 22.0, "operator": "SWM Versorgungs GmbH", "socket_type_list": ["AC Steckdose Typ 2", "AC Steckdose Typ 2"], "station_id": 98935, "street": "Meindlstr. 20a", "total_kw": 22.0, "town": "M\u00fcnchen"}, "geometry": {"type": "Point", "coordinates": [11.5380684, 48.1173153]}}, {"id": "212", "type": "Feature", "properties": {"capacity": 2.0, "data_source": "BNA,OCM,OSM", "dc_support": false, "max_kw": 22.0, "operator": "SWM Versorgungs GmbH", "socket_type_list": ["AC Steckdose Typ 2", "AC Steckdose Typ 2"], "station_id": 98936, "street": "Hohenwaldeckstr. 20a", "total_kw": 22.0, "town": "M\u00fcnchen"}, "geometry": {"type": "Point", "coordinates": [11.5941252, 48.116398]}}, {"id": "213", "type": "Feature", "properties": {"capacity": 2.0, "data_source": "BNA,OCM", "dc_support": false, "max_kw": 22.0, "operator": "SWM Versorgungs GmbH", "socket_type_list": ["AC Steckdose Typ 2", "AC Steckdose Typ 2"], "station_id": 98937, "street": "Germaniastr. 20a", "total_kw": 22.0, "town": "M\u00fcnchen"}, "geometry": {"type": "Point", "coordinates": [11.588193, 48.167171]}}, {"id": "214", "type": "Feature", "properties": {"capacity": 2.0, "data_source": "BNA", "dc_support": false, "max_kw": 22.0, "operator": "Mercedes- Benz AG - Niederlassung M\u00fcnchen", "socket_type_list": ["AC Steckdose Typ 2", "AC Steckdose Typ 2"], "station_id": 98938, "street": "Otto-Hahn-Ring 20", "total_kw": 22.0, "town": "M\u00fcnchen"}, "geometry": {"type": "Point", "coordinates": [11.6552644008504, 48.089011343354]}}, {"id": "215", "type": "Feature", "properties": {"capacity": 2.0, "data_source": "BNA", "dc_support": false, "max_kw": 22.0, "operator": "Mercedes- Benz AG - Niederlassung M\u00fcnchen", "socket_type_list": ["AC Kupplung Typ 2", "AC Kupplung Typ 2"], "station_id": 98939, "street": "Otto-Hahn-Ring  20", "total_kw": 44.0, "town": "M\u00fcnchen"}, "geometry": {"type": "Point", "coordinates": [11.65610899, 48.0901166]}}, {"id": "216", "type": "Feature", "properties": {"capacity": 2.0, "data_source": "BNA", "dc_support": false, "max_kw": 22.0, "operator": "Mercedes- Benz AG - Niederlassung M\u00fcnchen", "socket_type_list": ["AC Kupplung Typ 2", "AC Kupplung Typ 2"], "station_id": 98940, "street": "Otto-Hahn-Ring  20", "total_kw": 44.0, "town": "M\u00fcnchen"}, "geometry": {"type": "Point", "coordinates": [11.65478896, 48.09066538]}}, {"id": "217", "type": "Feature", "properties": {"capacity": 2.0, "data_source": "BNA", "dc_support": false, "max_kw": 22.0, "operator": "Automobilforum Kuttendreier GmbH", "socket_type_list": ["AC Steckdose Typ 2", "AC Steckdose Typ 2"], "station_id": 98941, "street": "Drosselweg 21", "total_kw": 44.0, "town": "M\u00fcnchen"}, "geometry": {"type": "Point", "coordinates": [11.6943551, 48.1182733]}}, {"id": "218", "type": "Feature", "properties": {"capacity": 2.0, "data_source": "BNA,OCM,OSM", "dc_support": false, "max_kw": 22.0, "operator": "SWM Versorgungs GmbH", "socket_type_list": ["AC Steckdose Typ 2", "AC Steckdose Typ 2"], "station_id": 98942, "street": "Kremser Str. 21", "total_kw": 22.0, "town": "M\u00fcnchen"}, "geometry": {"type": "Point", "coordinates": [11.4789397, 48.1449393]}}, {"id": "219", "type": "Feature", "properties": {"capacity": 2.0, "data_source": "BNA,OCM,OSM", "dc_support": false, "max_kw": 22.0, "operator": "SWM Versorgungs GmbH", "socket_type_list": ["AC Steckdose Typ 2", "AC Steckdose Typ 2"], "station_id": 98943, "street": "Ludwig-Richter-Str. 21a", "total_kw": 22.0, "town": "M\u00fcnchen"}, "geometry": {"type": "Point", "coordinates": [11.5178611, 48.1375269]}}, {"id": "220", "type": "Feature", "properties": {"capacity": 2.0, "data_source": "BNA,OCM,OSM", "dc_support": false, "max_kw": 22.0, "operator": "SWM Versorgungs GmbH", "socket_type_list": ["AC Steckdose Typ 2", "AC Steckdose Typ 2"], "station_id": 98944, "street": "Lautenschl\u00e4gerstr. 21", "total_kw": 22.0, "town": "M\u00fcnchen"}, "geometry": {"type": "Point", "coordinates": [11.4666931, 48.188954]}}, {"id": "221", "type": "Feature", "properties": {"capacity": 2.0, "data_source": "BNA,OSM", "dc_support": true, "max_kw": 50.0, "operator": "SWM Versorgungs GmbH", "socket_type_list": ["DC Kupplung Combo", " DC CHAdeMO", "AC Steckdose Typ 2"], "station_id": 98945, "street": "Aschauer Str. 21", "total_kw": 50.0, "town": "M\u00fcnchen"}, "geometry": {"type": "Point", "coordinates": [11.6014617, 48.1039205]}}, {"id": "222", "type": "Feature", "properties": {"capacity": 2.0, "data_source": "BNA,OSM", "dc_support": false, "max_kw": 22.0, "operator": "SWM Versorgungs GmbH", "socket_type_list": ["AC Steckdose Typ 2", "AC Steckdose Typ 2"], "station_id": 98946, "street": "Bunzlauer Str. 22a", "total_kw": 22.0, "town": "M\u00fcnchen"}, "geometry": {"type": "Point", "coordinates": [11.5084816, 48.1808355]}}, {"id": "223", "type": "Feature", "properties": {"capacity": 2.0, "data_source": "BNA,OCM,OSM", "dc_support": false, "max_kw": 22.0, "operator": "SWM Versorgungs GmbH", "socket_type_list": ["AC Steckdose Typ 2", "AC Steckdose Typ 2"], "station_id": 98947, "street": "Luisenstr. 22", "total_kw": 22.0, "town": "M\u00fcnchen"}, "geometry": {"type": "Point", "coordinates": [11.565513, 48.1485334]}}, {"id": "224", "type": "Feature", "properties": {"capacity": 2.0, "data_source": "BNA,OCM,OSM", "dc_support": false, "max_kw": 22.0, "operator": "SWM Versorgungs GmbH", "socket_type_list": ["AC Steckdose Typ 2", "AC Steckdose Typ 2"], "station_id": 98948, "street": "Johann-Clanze-Str. 23a", "total_kw": 22.0, "town": "M\u00fcnchen"}, "geometry": {"type": "Point", "coordinates": [11.534122, 48.1127141]}}, {"id": "225", "type": "Feature", "properties": {"capacity": 2.0, "data_source": "BNA,OCM,OSM", "dc_support": false, "max_kw": 22.0, "operator": "SWM Versorgungs GmbH", "socket_type_list": ["AC Steckdose Typ 2", "AC Steckdose Typ 2"], "station_id": 98949, "street": "Nordendstr. 23a", "total_kw": 22.0, "town": "M\u00fcnchen"}, "geometry": {"type": "Point", "coordinates": [11.5752086, 48.1554176]}}, {"id": "226", "type": "Feature", "properties": {"capacity": 2.0, "data_source": "BNA", "dc_support": true, "max_kw": 50.0, "operator": "SWM Versorgungs GmbH", "socket_type_list": ["DC Kupplung Combo", " DC CHAdeMO", "AC Steckdose Typ 2"], "station_id": 98950, "street": "Ganghoferstr. 23", "total_kw": 50.0, "town": "M\u00fcnchen"}, "geometry": {"type": "Point", "coordinates": [11.539823, 48.134459]}}, {"id": "227", "type": "Feature", "properties": {"capacity": 2.0, "data_source": "BNA,OCM,OSM", "dc_support": false, "max_kw": 22.0, "operator": "SWM Versorgungs GmbH", "socket_type_list": ["AC Steckdose Typ 2", "AC Steckdose Typ 2"], "station_id": 98951, "street": "Adam-Berg-Str. 24", "total_kw": 22.0, "town": "M\u00fcnchen"}, "geometry": {"type": "Point", "coordinates": [11.6225953, 48.1135474]}}, {"id": "228", "type": "Feature", "properties": {"capacity": 2.0, "data_source": "BNA,OCM", "dc_support": false, "max_kw": 22.0, "operator": "SWM Versorgungs GmbH", "socket_type_list": ["AC Steckdose Typ 2", "AC Steckdose Typ 2"], "station_id": 98952, "street": "Lucile-Grahn-Str. 24", "total_kw": 22.0, "town": "M\u00fcnchen"}, "geometry": {"type": "Point", "coordinates": [11.607521, 48.135199]}}, {"id": "229", "type": "Feature", "properties": {"capacity": 2.0, "data_source": "BNA,OSM", "dc_support": false, "max_kw": 22.0, "operator": "SWM Versorgungs GmbH", "socket_type_list": ["AC Steckdose Typ 2", "AC Steckdose Typ 2"], "station_id": 98953, "street": "Claude-Lorrain-Str. 24a", "total_kw": 22.0, "town": "M\u00fcnchen"}, "geometry": {"type": "Point", "coordinates": [11.5700812, 48.120243]}}, {"id": "230", "type": "Feature", "properties": {"capacity": 2.0, "data_source": "BNA,OSM", "dc_support": false, "max_kw": 22.0, "operator": "SWM Versorgungs GmbH", "socket_type_list": ["AC Steckdose Typ 2", "AC Steckdose Typ 2"], "station_id": 98954, "street": "Friedrich-Hebbel-Str. 25a", "total_kw": 22.0, "town": "M\u00fcnchen"}, "geometry": {"type": "Point", "coordinates": [11.5262444, 48.1106688]}}, {"id": "231", "type": "Feature", "properties": {"capacity": 2.0, "data_source": "BNA,OCM", "dc_support": false, "max_kw": 22.0, "operator": "SWM Versorgungs GmbH", "socket_type_list": ["AC Steckdose Typ 2", "AC Steckdose Typ 2"], "station_id": 98955, "street": "Friedastr. 25", "total_kw": 22.0, "town": "M\u00fcnchen"}, "geometry": {"type": "Point", "coordinates": [11.527856, 48.081158]}}, {"id": "232", "type": "Feature", "properties": {"capacity": 2.0, "data_source": "BNA,OSM", "dc_support": false, "max_kw": 22.0, "operator": "SWM Versorgungs GmbH", "socket_type_list": ["AC Steckdose Typ 2", "AC Steckdose Typ 2"], "station_id": 98956, "street": "Winthirstr. 25a", "total_kw": 22.0, "town": "M\u00fcnchen"}, "geometry": {"type": "Point", "coordinates": [11.5276099, 48.1566457]}}, {"id": "233", "type": "Feature", "properties": {"capacity": 2.0, "data_source": "BNA", "dc_support": false, "max_kw": 22.0, "operator": "TotalEnergies", "socket_type_list": ["AC Steckdose Typ 2", "AC Steckdose Typ 2"], "station_id": 98957, "street": "Drygalski-Allee 25", "total_kw": 44.0, "town": "M\u00fcnchen"}, "geometry": {"type": "Point", "coordinates": [11.5054917, 48.0947974]}}, {"id": "234", "type": "Feature", "properties": {"capacity": 2.0, "data_source": "BNA,OSM", "dc_support": false, "max_kw": 22.0, "operator": "SWM Versorgungs GmbH", "socket_type_list": ["AC Steckdose Typ 2", "AC Steckdose Typ 2"], "station_id": 98958, "street": "Dieter-Hildebrandt-Str. 26", "total_kw": 22.0, "town": "M\u00fcnchen"}, "geometry": {"type": "Point", "coordinates": [11.6219972, 48.1018063]}}, {"id": "235", "type": "Feature", "properties": {"capacity": 2.0, "data_source": "BNA,OSM", "dc_support": false, "max_kw": 22.0, "operator": "SWM Versorgungs GmbH", "socket_type_list": ["AC Steckdose Typ 2", "AC Steckdose Typ 2"], "station_id": 98959, "street": "Esswurmstr. 26", "total_kw": 22.0, "town": "M\u00fcnchen"}, "geometry": {"type": "Point", "coordinates": [11.5463907, 48.1129104]}}, {"id": "236", "type": "Feature", "properties": {"capacity": 2.0, "data_source": "BNA,OCM", "dc_support": false, "max_kw": 22.0, "operator": "NTT DATA Deutschland GmbH", "socket_type_list": ["AC Steckdose Typ 2", "AC Steckdose Typ 2"], "station_id": 98960, "street": "Hans-D\u00f6llgast-Str. 26", "total_kw": 44.0, "town": "M\u00fcnchen"}, "geometry": {"type": "Point", "coordinates": [11.587653, 48.184132]}}, {"id": "237", "type": "Feature", "properties": {"capacity": 2.0, "data_source": "BNA,OCM", "dc_support": false, "max_kw": 22.0, "operator": "SWM Versorgungs GmbH", "socket_type_list": ["AC Steckdose Typ 2", "AC Steckdose Typ 2"], "station_id": 98961, "street": "Pf\u00e4nderstr. 27a", "total_kw": 22.0, "town": "M\u00fcnchen"}, "geometry": {"type": "Point", "coordinates": [11.547834, 48.156065]}}, {"id": "238", "type": "Feature", "properties": {"capacity": 2.0, "data_source": "BNA,OSM", "dc_support": false, "max_kw": 22.0, "operator": "SWM Versorgungs GmbH", "socket_type_list": ["AC Steckdose Typ 2", "AC Steckdose Typ 2"], "station_id": 98962, "street": "St\u00e4blistr. 27", "total_kw": 22.0, "town": "M\u00fcnchen"}, "geometry": {"type": "Point", "coordinates": [11.4995004, 48.0869379]}}, {"id": "239", "type": "Feature", "properties": {"capacity": 2.0, "data_source": "BNA,OCM,OSM", "dc_support": false, "max_kw": 22.0, "operator": "SWM Versorgungs GmbH", "socket_type_list": ["AC Steckdose Typ 2", "AC Steckdose Typ 2"], "station_id": 98963, "street": "Implerstr. 28", "total_kw": 22.0, "town": "M\u00fcnchen"}, "geometry": {"type": "Point", "coordinates": [11.548264, 48.1205864]}}, {"id": "240", "type": "Feature", "properties": {"capacity": 2.0, "data_source": "BNA,OCM,OSM", "dc_support": false, "max_kw": 22.0, "operator": "Mercedes- Benz AG - Niederlassung M\u00fcnchen", "socket_type_list": ["AC Steckdose Typ 2", "AC Steckdose Typ 2"], "station_id": 98964, "street": "Ingolst\u00e4dter Str. 28", "total_kw": 44.0, "town": "M\u00fcnchen"}, "geometry": {"type": "Point", "coordinates": [11.5851434, 48.1873384]}}, {"id": "241", "type": "Feature", "properties": {"capacity": 2.0, "data_source": "BNA,OCM,OSM", "dc_support": false, "max_kw": 22.0, "operator": "SWM Versorgungs GmbH", "socket_type_list": ["AC Steckdose Typ 2", "AC Steckdose Typ 2"], "station_id": 98965, "street": "Seerieder Str. 29a", "total_kw": 22.0, "town": "M\u00fcnchen"}, "geometry": {"type": "Point", "coordinates": [11.6020704, 48.1339645]}}, {"id": "242", "type": "Feature", "properties": {"capacity": 2.0, "data_source": "BNA,OCM,OSM", "dc_support": false, "max_kw": 22.0, "operator": "SWM Versorgungs GmbH", "socket_type_list": ["AC Steckdose Typ 2", "AC Steckdose Typ 2"], "station_id": 98966, "street": "K\u00f6lner Platz 6a", "total_kw": 22.0, "town": "M\u00fcnchen"}, "geometry": {"type": "Point", "coordinates": [11.5777238, 48.1698917]}}, {"id": "243", "type": "Feature", "properties": {"capacity": 2.0, "data_source": "BNA,OCM,OSM", "dc_support": false, "max_kw": 22.0, "operator": "SWM Versorgungs GmbH", "socket_type_list": ["AC Steckdose Typ 2", "AC Steckdose Typ 2"], "station_id": 98967, "street": "Steinstr. 29", "total_kw": 22.0, "town": "M\u00fcnchen"}, "geometry": {"type": "Point", "coordinates": [11.5963805, 48.1324625]}}, {"id": "244", "type": "Feature", "properties": {"capacity": 2.0, "data_source": "BNA,OCM,OSM", "dc_support": false, "max_kw": 22.0, "operator": "SWM Versorgungs GmbH", "socket_type_list": ["AC Steckdose Typ 2", "AC Steckdose Typ 2"], "station_id": 98968, "street": "Am Mitterfeld 29", "total_kw": 22.0, "town": "M\u00fcnchen"}, "geometry": {"type": "Point", "coordinates": [11.6758979, 48.1285777]}}, {"id": "245", "type": "Feature", "properties": {"capacity": 4.0, "data_source": "BNA,OCM,OSM", "dc_support": false, "max_kw": 22.0, "operator": "Qwello GmbH", "socket_type_list": ["AC Steckdose Typ 2", " AC CEE 3 polig", "AC Steckdose Typ 2", " AC CEE 3 polig", "AC Steckdose Typ 2", " AC CEE 3 polig", "AC Steckdose Typ 2"], "station_id": 98969, "street": "Barer Str. 29", "total_kw": 100.0, "town": "M\u00fcnchen"}, "geometry": {"type": "Point", "coordinates": [11.572255, 48.1495985]}}, {"id": "246", "type": "Feature", "properties": {"capacity": 2.0, "data_source": "BNA,OSM", "dc_support": true, "max_kw": 50.0, "operator": "SWM Versorgungs GmbH", "socket_type_list": ["DC Kupplung Combo", " DC CHAdeMO", "AC Steckdose Typ 2"], "station_id": 98970, "street": "Joseph-Dollinger-Bogen 30", "total_kw": 50.0, "town": "M\u00fcnchen"}, "geometry": {"type": "Point", "coordinates": [11.6057883, 48.1857888]}}, {"id": "247", "type": "Feature", "properties": {"capacity": 2.0, "data_source": "BNA,OSM", "dc_support": false, "max_kw": 22.0, "operator": "SWM Versorgungs GmbH", "socket_type_list": ["AC Steckdose Typ 2", "AC Steckdose Typ 2"], "station_id": 98971, "street": "Kunigundenstr. 30a", "total_kw": 22.0, "town": "M\u00fcnchen"}, "geometry": {"type": "Point", "coordinates": [11.5918932, 48.1659968]}}, {"id": "248", "type": "Feature", "properties": {"capacity": 2.0, "data_source": "BNA,OCM,OSM", "dc_support": false, "max_kw": 22.0, "operator": "SWM Versorgungs GmbH", "socket_type_list": ["AC Steckdose Typ 2", "AC Steckdose Typ 2"], "station_id": 98972, "street": "Pariser Str. 17", "total_kw": 22.0, "town": "M\u00fcnchen"}, "geometry": {"type": "Point", "coordinates": [11.5984766, 48.1272396]}}, {"id": "249", "type": "Feature", "properties": {"capacity": 2.0, "data_source": "BNA,OCM,OSM", "dc_support": false, "max_kw": 22.0, "operator": "SWM Versorgungs GmbH", "socket_type_list": ["AC Steckdose Typ 2", "AC Steckdose Typ 2"], "station_id": 98975, "street": "W\u00f6hlerstr. 31a", "total_kw": 22.0, "town": "M\u00fcnchen"}, "geometry": {"type": "Point", "coordinates": [11.4646079, 48.169216]}},